poiCity, poiName, poiId, olon, olat, lon, lat, url, poiUrl, poiSource, poiComment, poiPrice, poiAddress
宝鸡,安旗烘焙（虢镇店）,152306333,107.385023,34.353497,107.3800527,34.3547457,http://baoji.meituan.com/meishi/c11b4302/,http://www.meituan.com/meishi/152306333/,3,4条评论,人均￥45,陈仓区西大街城建局对面（中街灯具厂楼下）
宝鸡,700cc都市茶饮（陈仓店）,158873863,107.376786,34.352462,107.3718293,34.3537199,http://baoji.meituan.com/meishi/c11b4302/,http://www.meituan.com/meishi/158873863/,5,194条评论,人均￥12,陈仓区陈仓区陈仓步行街
宝鸡,麦香园蛋糕房,41065045,107.386324,34.352818,107.3813519,34.3540659,http://baoji.meituan.com/meishi/c11b4302/,http://www.meituan.com/meishi/41065045/,4.4,1091条评论,人均￥10,陈仓区虢镇西大街39号（中国银行西70米）
宝鸡,唯美西点澳门葡挞,6704037,107.388032,34.353075,107.3830575,34.3543213,http://baoji.meituan.com/meishi/c11b4302/,http://www.meituan.com/meishi/6704037/,4.4,226条评论,人均￥19,陈仓区虢镇街道东大街284号
宝鸡,优客,41343209,107.377323,34.353383,107.3723653,34.3546398,http://baoji.meituan.com/meishi/c11b4302/,http://www.meituan.com/meishi/41343209/,4.7,47条评论,人均￥9,陈仓区虢镇步行街北口3号
宝鸡,简爱私房烘焙工作室,175491299,107.390911,34.352419,107.385933,34.3536635,http://baoji.meituan.com/meishi/c11b4302/,http://www.meituan.com/meishi/175491299/,5,41条评论,人均 -,陈仓区陈仓区东大街
宝鸡,三利西饼,5811874,107.37841,34.35394,107.3734503,34.3551952,http://baoji.meituan.com/meishi/c11b4302/,http://www.meituan.com/meishi/5811874/,4.9,143条评论,人均￥10,陈仓区西大街220号
宝鸡,付记蛋糕店,85936969,107.395514,34.352378,107.390531,34.3536198,http://baoji.meituan.com/meishi/c11b4302/,http://www.meituan.com/meishi/85936969/,5,34条评论,人均￥20,陈仓区东大街15号
宝鸡,红玫瑰蛋糕房,5674091,107.38652,34.353039,107.3815476,34.3542866,http://baoji.meituan.com/meishi/c11b4302/,http://www.meituan.com/meishi/5674091/,4.6,302条评论,人均￥10,陈仓区西大街24号
宝鸡,Pink House 主题饮品店,185315008,107.386701,34.353432,107.3817283,34.3546792,http://baoji.meituan.com/meishi/c11b4302/,http://www.meituan.com/meishi/185315008/,3.5,2条评论,人均￥16,陈仓区东大街金谷广场步行街88号
宝鸡,妙味蛋糕,164556430,107.39004,34.35117,107.3850631,34.3524158,http://baoji.meituan.com/meishi/c11b4302/,http://www.meituan.com/meishi/164556430/,4.3,11条评论,人均 -,陈仓区虢镇金水巷
宝鸡,恩典艺术蛋糕,5052494,107.3739,34.35407,107.3689486,34.3553306,http://baoji.meituan.com/meishi/c11b4302/,http://www.meituan.com/meishi/5052494/,3.8,54条评论,人均￥13,陈仓区虢镇西大街陈仓医院对面（，陈仓汽车站斜对面，建材市场西侧）
宝鸡,爱麦儿（行政中心店）,75416120,107.241299,34.361904,107.2366065,34.3633224,http://baoji.meituan.com/meishi/c11b4302/,http://www.meituan.com/meishi/75416120/,4.8,69条评论,人均 -,陈仓区行政东路三迪新城底商
宝鸡,碰碰凉（阳光店）,41710345,107.382604,34.353568,107.3776374,34.354818,http://baoji.meituan.com/meishi/c11b4302/,http://www.meituan.com/meishi/41710345/,3.5,1272条评论,人均￥17,陈仓区虢镇阳光广场1层和2层
宝鸡,唯味西饼,41938135,107.37963,34.353562,107.3746682,34.354816,http://baoji.meituan.com/meishi/c11b4302/,http://www.meituan.com/meishi/41938135/,4.3,1029条评论,人均￥9,陈仓区虢镇西大街167号（西班牙小区楼下）
宝鸡,南极王子茶饮（阳光店）,165162161,107.382811,34.353549,107.377844,34.354799,http://baoji.meituan.com/meishi/c11b4302/,http://www.meituan.com/meishi/165162161/,4.7,18条评论,人均￥6,陈仓区西大街阳光广场家家鑫书城108号
宝鸡,我家酸牛奶,179718387,107.385066,34.354765,107.3800955,34.356013,http://baoji.meituan.com/meishi/c11b4302/,http://www.meituan.com/meishi/179718387/,3.5,2条评论,人均￥7,陈仓区虢镇人民街46号
宝鸡,青青小屋,159980219,107.386907,34.353069,107.3819341,34.3543162,http://baoji.meituan.com/meishi/c11b4302/,http://www.meituan.com/meishi/159980219/,3.9,45条评论,人均￥13,陈仓区虢镇金谷广场四楼
宝鸡,三木烘焙（三迪店）,165748217,107.240891,34.360991,107.2361986,34.3624097,http://baoji.meituan.com/meishi/c11b4302/,http://www.meituan.com/meishi/165748217/,3.5,1条评论,人均￥45,陈仓区行政东路
宝鸡,麦香烘焙,166212260,107.358249,34.36189,107.3533312,34.3631698,http://baoji.meituan.com/meishi/c11b4302/,http://www.meituan.com/meishi/166212260/,3.8,11条评论,人均 -,陈仓区永丰花园南门
宝鸡,蜜思烘焙（虢镇店）,114995746,107.377148,34.352806,107.3721906,34.3540633,http://baoji.meituan.com/meishi/c11b4302/,http://www.meituan.com/meishi/114995746/,3.5,2条评论,人均 -,陈仓区陈仓步行街08号
宝鸡,涂涂山楂园（千渭店）,101498265,107.333362,34.358648,107.32851,34.3599749,http://baoji.meituan.com/meishi/c11b4302/,http://www.meituan.com/meishi/101498265/,3,1条评论,人均￥15,陈仓区陈仓大道北千渭星城D区门口向北20米
宝鸡,美味蛋糕西饼店,190634837,107.242846,34.361072,107.2381535,34.3624916,http://baoji.meituan.com/meishi/c11b4302/,http://www.meituan.com/meishi/190634837/,暂无评,0条评论,人均￥40,陈仓区行政大道
宝鸡,甜蜜蛋糕坊,157829277,106.775291,34.529499,106.7709483,34.5308326,http://baoji.meituan.com/meishi/c11b4302/,http://www.meituan.com/meishi/157829277/,暂无评,1条评论,人均 -,陈仓区香泉镇香泉中学斜对面（香泉邮局旁边）
宝鸡,乐芙蛋糕（时尚蛋糕店）,73676441,107.382002,34.3537,107.3770363,34.3549515,http://baoji.meituan.com/meishi/c11b4302/,http://www.meituan.com/meishi/73676441/,暂无评,0条评论,人均 -,陈仓区西大街49号
宝鸡,wuil灿,163389964,107.38691,34.35305,107.381937,34.3542973,http://baoji.meituan.com/meishi/c11b4302/,http://www.meituan.com/meishi/163389964/,暂无评,2条评论,人均￥15,陈仓区虢镇西大街8号（金谷广场3楼）
宝鸡,千味西点,50407342,107.329796,34.358998,107.3249538,34.3603316,http://baoji.meituan.com/meishi/c11b4302/,http://www.meituan.com/meishi/50407342/,3,2条评论,人均 -,陈仓区虢镇千渭星城D区门口向北30米
宝鸡,启达西饼生日蛋糕（宝-鸡1店）,182450344,107.132379,34.349094,107.1275619,34.3503572,http://baoji.meituan.com/meishi/c11b4300/,http://www.meituan.com/meishi/182450344/,4,43条评论,人均 -,渭滨区清姜东二路市场（王佳怡商行旁）
宝鸡,艾英伦手感烘焙（经二路店）,4282853,107.145719,34.371706,107.1409123,34.3729754,http://baoji.meituan.com/meishi/c11b4300/,http://www.meituan.com/meishi/4282853/,4.3,3291条评论,人均￥21,渭滨区经二路与汉中路十字东方国际一楼（银座东侧）
宝鸡,麦利佳蛋糕（红旗路店）,3261737,107.140624,34.37134,107.135812,34.3726022,http://baoji.meituan.com/meishi/c11b4300/,http://www.meituan.com/meishi/3261737/,3.8,588条评论,人均 -,渭滨区红旗路3号
宝鸡,岳先生烘焙（清姜旗舰店）,163411733,107.127329,34.350049,107.1225089,34.3513065,http://baoji.meituan.com/meishi/c11b4300/,http://www.meituan.com/meishi/163411733/,5,45条评论,人均 -,渭滨区清姜路西三路口（口腔第六人民医院）
宝鸡,香麦西饼屋,5056761,107.12114,34.340781,107.1163186,34.3420378,http://baoji.meituan.com/meishi/c11b4300/,http://www.meituan.com/meishi/5056761/,4.6,623条评论,人均 -,渭滨区清姜东六路长岭市场内门面房（联通隔壁）
宝鸡,华力蛋糕店,42727051,107.161265,34.347208,107.1564811,34.3485158,http://baoji.meituan.com/meishi/c11b4300/,http://www.meituan.com/meishi/42727051/,4.8,512条评论,人均￥37,渭滨区宝光路46号（相家庄综合市场西口向南20米）
宝鸡,网红蛋糕私人订制,183708474,107.142442,34.373034,107.1376317,34.3742978,http://baoji.meituan.com/meishi/c11b4300/,http://www.meituan.com/meishi/183708474/,5,30条评论,人均￥45,渭滨区经一路83号
宝鸡,储缘蛋糕（宝光路店）,42008987,107.161294,34.347625,107.1565101,34.3489327,http://baoji.meituan.com/meishi/c11b4300/,http://www.meituan.com/meishi/42008987/,4.9,274条评论,人均￥50,渭滨区宝光路46号（文理学院对面，近相家庄市场路口，多多乐超市旁）
宝鸡,欧贝尔蛋糕房,4618613,107.099896,34.358894,107.0950803,34.3601351,http://baoji.meituan.com/meishi/c11b4300/,http://www.meituan.com/meishi/4618613/,4.4,241条评论,人均￥68,渭滨区姜谭路孔家庄路口向西10米
宝鸡,岳先生烘焙（经二路店）,163397365,107.142895,34.371144,107.1380853,34.3724095,http://baoji.meituan.com/meishi/c11b4300/,http://www.meituan.com/meishi/163397365/,5,202条评论,人均￥16,渭滨区新民一巷宝商新世纪购物中心对面
宝鸡,李氏桃酥,42506564,107.221389,34.335152,107.2166904,34.3365673,http://baoji.meituan.com/meishi/c11b4300/,http://www.meituan.com/meishi/42506564/,5,44条评论,人均￥12,渭滨区和谐路朴西佳苑7号商铺
宝鸡,稻草香蛋糕房,40441387,107.10416,34.35915,107.099341,34.3603908,http://baoji.meituan.com/meishi/c11b4300/,http://www.meituan.com/meishi/40441387/,3.8,110条评论,人均￥36,渭滨区姜谭路姜谭中心市场里面东排3号
宝鸡,味佳西饼屋,4277681,107.120505,34.341314,107.1156835,34.34257,http://baoji.meituan.com/meishi/c11b4300/,http://www.meituan.com/meishi/4277681/,4.1,77条评论,人均￥10,渭滨区清姜路与东六路交叉口长岭如意小区30号楼一层5-6号
宝鸡,麦琪蛋糕（中滩路店）,2561690,107.14203,34.35973,107.1372203,34.3610002,http://baoji.meituan.com/meishi/c11b4300/,http://www.meituan.com/meishi/2561690/,4.3,21条评论,人均￥30,渭滨区中滩路2号（三局六处8号门面）
宝鸡,米旗（河滨公园店）,5105227,107.138081,34.372499,107.1332665,34.3737572,http://baoji.meituan.com/meishi/c11b4300/,http://www.meituan.com/meishi/5105227/,4.2,2388条评论,人均￥30,渭滨区经二路西客运站斜对面（宝商对面）
宝鸡,三木西饼屋（经二路店）,6918207,107.158062,34.370239,107.1532715,34.3715293,http://baoji.meituan.com/meishi/c11b4300/,http://www.meituan.com/meishi/6918207/,4.6,2047条评论,人均￥24,渭滨区经二路6号一层4号（宝鸡书城隔壁）
宝鸡,凯司令·凯旗（石坝河店）,4248330,107.160101,34.348481,107.1553152,34.3497861,http://baoji.meituan.com/meishi/c11b4300/,http://www.meituan.com/meishi/4248330/,4.3,1779条评论,人均￥28,渭滨区市宝鸡文理学院老校区隔壁
宝鸡,御品轩（广元路店）,1078259,107.134895,34.37158,107.1300779,34.3728346,http://baoji.meituan.com/meishi/c11b4300/,http://www.meituan.com/meishi/1078259/,3.8,971条评论,人均￥18,渭滨区广元路14号（新世纪转盘北路）
宝鸡,麦香村西饼屋（学院店）,157791426,107.296702,34.336522,107.2919465,34.337924,http://baoji.meituan.com/meishi/c11b4300/,http://www.meituan.com/meishi/157791426/,4.1,1483条评论,人均 -,渭滨区宝鸡职业技术学院对面
宝鸡,味美轩（经二路店）,4379171,107.1426,34.372064,107.1377899,34.3733286,http://baoji.meituan.com/meishi/c11b4300/,http://www.meituan.com/meishi/4379171/,3.8,1054条评论,人均￥11,渭滨区经二路92号悦城儿童生活广场一楼（国美正对面百衣百顺隔壁）
宝鸡,DF冰淇凌,98052105,107.151224,34.370445,107.1464241,34.3717237,http://baoji.meituan.com/meishi/c11b4300/,http://www.meituan.com/meishi/98052105/,4.5,648条评论,人均￥15,渭滨区开元商城5楼电梯旁
宝鸡,巴黎风谛（经二路店）,5223881,107.147447,34.370542,107.1426424,34.3718146,http://baoji.meituan.com/meishi/c11b4300/,http://www.meituan.com/meishi/5223881/,4.3,2019条评论,人均￥29,渭滨区经二路人民医院北侧50米
宝鸡,麦香村西饼屋（公园路店）,5638212,107.143277,34.356647,107.1384689,34.3579206,http://baoji.meituan.com/meishi/c11b4300/,http://www.meituan.com/meishi/5638212/,4.4,476条评论,人均￥46,渭滨区公园路与裕泉路十字向南30米渭滨公安对面
宝鸡,爱麦儿（火炬路店）,78628898,107.146858,34.352678,107.1420542,34.3539589,http://baoji.meituan.com/meishi/c11b4300/,http://www.meituan.com/meishi/78628898/,5,36条评论,人均 -,渭滨区火炬路鼎盛大厦
宝鸡,杭州蛋糕城（经二路店）,153641146,107.14706,34.369901,107.142255,34.3711734,http://baoji.meituan.com/meishi/c11b4300/,http://www.meituan.com/meishi/153641146/,5,49条评论,人均￥38,渭滨区经二路人民医院北门
宝鸡,金辰烘焙工作室,153724319,107.143369,34.370686,107.1385598,34.3719524,http://baoji.meituan.com/meishi/c11b4300/,http://www.meituan.com/meishi/153724319/,3,4条评论,人均￥15,渭滨区新民路大地苑8号楼2--1001号
宝鸡,尚品轩蛋糕房（老文理店）,41698229,107.16108,34.34689,107.1562958,34.3481976,http://baoji.meituan.com/meishi/c11b4300/,http://www.meituan.com/meishi/41698229/,4,209条评论,人均￥33,渭滨区相家庄综合市场西口（多多乐超市南50米处）
宝鸡,爱之恋蛋糕,40409422,107.295563,34.336317,107.2908101,34.3377207,http://baoji.meituan.com/meishi/c11b4300/,http://www.meituan.com/meishi/40409422/,4,88条评论,人均 -,渭滨区渭滨大道宜家快捷酒店楼下
宝鸡,爱的烘焙,42735051,107.126935,34.369244,107.1221132,34.3704912,http://baoji.meituan.com/meishi/c11b4300/,http://www.meituan.com/meishi/42735051/,4.2,30条评论,人均￥42,渭滨区渭工路49号（渭工路与新渭路交叉口西20米路南）
宝鸡,布丁点点（经二路店）,61666422,107.142749,34.371954,107.1379391,34.3732189,http://baoji.meituan.com/meishi/c11b4300/,http://www.meituan.com/meishi/61666422/,3.6,615条评论,人均￥9,渭滨区经二路81号金花儿童生活广场F1
宝鸡,麦香琪蛋糕屋,164405192,107.136581,34.354522,107.1317666,34.3557876,http://baoji.meituan.com/meishi/c11b4300/,http://www.meituan.com/meishi/164405192/,3.9,9条评论,人均￥20,渭滨区英达路西口2-9号（海关对面）
宝鸡,英伦时光面包烘焙坊（西二路店）,165694359,107.127555,34.351656,107.1227349,34.3529129,http://baoji.meituan.com/meishi/c11b4300/,http://www.meituan.com/meishi/165694359/,3.8,31条评论,人均￥36,渭滨区西二路烽火三街坊高层3号楼商铺1号
宝鸡,嬉皮士音乐清吧,163563097,107.19538,34.350121,107.1906496,34.3514902,http://baoji.meituan.com/meishi/c11b4300/,http://www.meituan.com/meishi/163563097/,3.5,2条评论,人均￥40,渭滨区滨河大道石鼓太阳市夜明珠广场西南侧
宝鸡,猫宁-共享猫咖啡,164636917,107.145179,34.372106,107.1403717,34.3733743,http://baoji.meituan.com/meishi/c11b4300/,http://www.meituan.com/meishi/164636917/,5,272条评论,人均￥39,渭滨区经二路银座大厦12楼1210室
宝鸡,阿姨奶茶,165835279,107.135481,34.355117,107.1306657,34.3563809,http://baoji.meituan.com/meishi/c11b4300/,http://www.meituan.com/meishi/165835279/,5,216条评论,人均￥10,渭滨区英达路创业路3附
宝鸡,芬兰阳光烘培,165913486,107.128572,34.350819,107.1237525,34.3520773,http://baoji.meituan.com/meishi/c11b4300/,http://www.meituan.com/meishi/165913486/,暂无评,0条评论,人均 -,渭滨区东二路与清姜路交叉口20米
宝鸡,茶小嘿,167103149,107.144251,34.37206,107.1394427,34.373327,http://baoji.meituan.com/meishi/c11b4300/,http://www.meituan.com/meishi/167103149/,3.5,13条评论,人均￥16,渭滨区建国路新开路3号楼
宝鸡,红太阳蛋糕（金陵新村店）,167862025,107.156652,34.367392,107.1518597,34.3686814,http://baoji.meituan.com/meishi/c11b4300/,http://www.meituan.com/meishi/167862025/,暂无评,0条评论,人均 -,渭滨区金陵新村金陵幼儿园对面
宝鸡,百度饮品（石坝河店）,168976350,107.148808,34.349581,107.1440068,34.3508665,http://baoji.meituan.com/meishi/c11b4300/,http://www.meituan.com/meishi/168976350/,3,12条评论,人均￥7,渭滨区天主教堂二号门面房
宝鸡,维诺苏丽法式甜点,169018477,107.154358,34.370702,107.1495623,34.3719857,http://baoji.meituan.com/meishi/c11b4300/,http://www.meituan.com/meishi/169018477/,4.6,87条评论,人均￥12,渭滨区经二路18号（天同国际一楼）
宝鸡,醇享悦然定制烘焙（西凤路店）,169036144,107.155653,34.368639,107.1508592,34.369926,http://baoji.meituan.com/meishi/c11b4300/,http://www.meituan.com/meishi/169036144/,4.2,16条评论,人均￥40,渭滨区西凤路金陵步行街10号楼1层
宝鸡,原麦稀奶油蛋糕,169378485,107.222115,34.33513,107.2174169,34.3365461,http://baoji.meituan.com/meishi/c11b4300/,http://www.meituan.com/meishi/169378485/,4.9,22条评论,人均 -,渭滨区高新四路南站前大道朴西佳苑北门向东20米（每一天便利店旁）
宝鸡,答案茶（经一路店）,170532296,107.146184,34.372674,107.1413778,34.3739435,http://baoji.meituan.com/meishi/c11b4300/,http://www.meituan.com/meishi/170532296/,3.1,49条评论,人均￥20,渭滨区经一路步行街馋嘴佳鸡排旁
宝鸡,味觉记忆,170662977,107.142846,34.372998,107.1380361,34.3742624,http://baoji.meituan.com/meishi/c11b4300/,http://www.meituan.com/meishi/170662977/,暂无评,0条评论,人均￥100,渭滨区经一路60号（城乡建筑设计院正对面）
宝鸡,忆果时光（金陵中学店）,174375771,107.158598,34.367878,107.1538085,34.3691705,http://baoji.meituan.com/meishi/c11b4300/,http://www.meituan.com/meishi/174375771/,3.5,1条评论,人均￥2,渭滨区金陵街道办事处金陵社区金陵新村十号楼西单元1楼2号
宝鸡,忆果时光,175394455,107.141088,34.359528,107.1362774,34.360797,http://baoji.meituan.com/meishi/c11b4300/,http://www.meituan.com/meishi/175394455/,暂无评,7条评论,人均￥5,渭滨区中滩路周黑鸭旁
宝鸡,蜜女士甜品工作室,177271927,107.153979,34.371496,107.1491827,34.3727787,http://baoji.meituan.com/meishi/c11b4300/,http://www.meituan.com/meishi/177271927/,暂无评,2条评论,人均 -,渭滨区经二路天同国际B座2501
宝鸡,ChaLi茶里,177471217,107.150058,34.349452,107.1452584,34.3507396,http://baoji.meituan.com/meishi/c11b4300/,http://www.meituan.com/meishi/177471217/,5,158条评论,人均￥12,渭滨区峪石路石坝河街5号教堂斜对面
宝鸡,LZ私享烘焙,177573415,107.134391,34.371844,107.1295735,34.3730979,http://baoji.meituan.com/meishi/c11b4300/,http://www.meituan.com/meishi/177573415/,暂无评,0条评论,人均￥26,渭滨区经二路宝隆御邸小区1期4号楼2单元
宝鸡,东升糕点房,177908953,107.121134,34.340785,107.1163126,34.3420418,http://baoji.meituan.com/meishi/c11b4300/,http://www.meituan.com/meishi/177908953/,3.5,6条评论,人均 -,渭滨区清姜东六路长岭市场大院东1号（长岭超市隔壁）
宝鸡,芭比娃蛋糕,179146670,107.148514,34.374401,107.1437104,34.3756732,http://baoji.meituan.com/meishi/c11b4300/,http://www.meituan.com/meishi/179146670/,暂无评,0条评论,人均 -,渭滨区汉中路93附
宝鸡,泰爱水果捞,179630825,107.133796,34.357273,107.1289792,34.3585337,http://baoji.meituan.com/meishi/c11b4300/,http://www.meituan.com/meishi/179630825/,3,2条评论,人均￥11,渭滨区高新区桥南办事处清姜路怡佰超市-1号（小六隔壁）
宝鸡,一口酸牛奶（陈仓老街）,179641712,107.195993,34.35128,107.1912634,34.3526497,http://baoji.meituan.com/meishi/c11b4300/,http://www.meituan.com/meishi/179641712/,4.4,20条评论,人均￥10,渭滨区陈仓老街
宝鸡,五谷面包坊,96459201,107.12057,34.34137,107.1157485,34.3426261,http://baoji.meituan.com/meishi/c11b4300/,http://www.meituan.com/meishi/96459201/,4.4,526条评论,人均￥15,渭滨区清姜路泰熙家旁
宝鸡,馨忆DIY巧克力蛋糕坊,79131453,107.152131,34.367749,107.1473325,34.3690306,http://baoji.meituan.com/meishi/c11b4300/,http://www.meituan.com/meishi/79131453/,5,230条评论,人均 -,渭滨区开元商场后侧香榭里街区一号楼2单元0803室2单元在香榭丽幼儿园对面
宝鸡,一水依花果水吧,179756669,107.130811,34.362657,107.1259918,34.3639116,http://baoji.meituan.com/meishi/c11b4300/,http://www.meituan.com/meishi/179756669/,3.5,2条评论,人均￥28,渭滨区川陕路加油站斜对面
宝鸡,鹿角巷 THE ALLEY,179953323,107.198242,34.349009,107.1935158,34.3503837,http://baoji.meituan.com/meishi/c11b4300/,http://www.meituan.com/meishi/179953323/,3.1,16条评论,人均￥21,渭滨区陈仓老街
宝鸡,壹柒西饼（渭滨店）,181479638,107.127487,34.371701,107.1226652,34.3729475,http://baoji.meituan.com/meishi/c11b4300/,http://www.meituan.com/meishi/181479638/,3,2条评论,人均￥15,渭滨区新建路18号
宝鸡,六味轩绿豆酥,181517430,107.197643,34.348909,107.192916,34.3502828,http://baoji.meituan.com/meishi/c11b4300/,http://www.meituan.com/meishi/181517430/,暂无评,0条评论,人均￥20,渭滨区陈仓老街向南第二个桥向右第五家
宝鸡,一口酸牛奶（人民商场店）,182449347,107.145497,34.371052,107.1406901,34.3723214,http://baoji.meituan.com/meishi/c11b4300/,http://www.meituan.com/meishi/182449347/,4.8,96条评论,人均￥7,渭滨区汉中路与经二路交叉口宝鸡人民商场西门旁
宝鸡,琉璃三彩冰糖葫芦,183992231,107.197804,34.351297,107.193077,34.3526698,http://baoji.meituan.com/meishi/c11b4300/,http://www.meituan.com/meishi/183992231/,3.5,0条评论,人均￥9,渭滨区滨河大道陈仓老街
宝鸡,优麦乐滋,188992527,107.147555,34.371503,107.1427505,34.3727753,http://baoji.meituan.com/meishi/c11b4300/,http://www.meituan.com/meishi/188992527/,暂无评,0条评论,人均￥10,渭滨区经二路新开路5号
宝鸡,喵家烘焙咖啡,190309298,107.140076,34.355165,107.1352647,34.3564348,http://baoji.meituan.com/meishi/c11b4300/,http://www.meituan.com/meishi/190309298/,4,4条评论,人均￥39,渭滨区火炬路28号华夏盛世SOHO1812室（向阳烤鸭楼上）
宝鸡,玛德琳烘焙（桥南店）,191117335,107.140318,34.359139,107.1355067,34.3604071,http://baoji.meituan.com/meishi/c11b4300/,http://www.meituan.com/meishi/191117335/,暂无评,0条评论,人均￥20,渭滨区公园路29号
宝鸡,麦甜蛋糕（花海如潮蛋糕店）,83730184,107.127622,34.368857,107.1228005,34.3701051,http://baoji.meituan.com/meishi/c11b4300/,http://www.meituan.com/meishi/83730184/,暂无评,0条评论,人均 -,渭滨区新渭路81号
宝鸡,稻香世家面包房,86337915,107.141392,34.371628,107.1365807,34.3728911,http://baoji.meituan.com/meishi/c11b4300/,http://www.meituan.com/meishi/86337915/,4.1,20条评论,人均￥91,渭滨区经二路宝商佳美家超市内
宝鸡,逸茶馆,93113681,107.126887,34.348743,107.1220668,34.3500007,http://baoji.meituan.com/meishi/c11b4300/,http://www.meituan.com/meishi/93113681/,3.5,4条评论,人均￥20,渭滨区清姜路70号（豪景花园酒店北侧2楼）
宝鸡,夥夥果园·鲜榨果汁,96981589,107.151224,34.370436,107.1464241,34.3717147,http://baoji.meituan.com/meishi/c11b4300/,http://www.meituan.com/meishi/96981589/,4.5,52条评论,人均￥13,渭滨区经二路开元商城一楼南厅东电梯下
宝鸡,盖世龙茶,158645052,107.147373,34.372492,107.1425682,34.3737635,http://baoji.meituan.com/meishi/c11b4300/,http://www.meituan.com/meishi/158645052/,4.6,240条评论,人均￥4,渭滨区经一路步行街清真寺东行30米
宝鸡,三木烘焙（公园路店）,162899216,107.145713,34.356727,107.1409075,34.3580041,http://baoji.meituan.com/meishi/c11b4300/,http://www.meituan.com/meishi/162899216/,3.5,2条评论,人均￥45,渭滨区公园路102号
宝鸡,蜜雪冰城,41792969,107.147001,34.37261,107.1421957,34.3738808,http://baoji.meituan.com/meishi/c11b4300/,http://www.meituan.com/meishi/41792969/,4.1,1502条评论,人均￥5,渭滨区新开路1号，经一路步行街与新开路交叉口西50米（101对面）
宝鸡,麦克风（经二路店）,168989849,107.141651,34.371484,107.13684,34.3727475,http://baoji.meituan.com/meishi/c11b4300/,http://www.meituan.com/meishi/168989849/,4.4,23条评论,人均 -,渭滨区经二路114号
宝鸡,主题奶茶都市茶饮,179467353,107.147462,34.372199,107.1426573,34.3734708,http://baoji.meituan.com/meishi/c11b4300/,http://www.meituan.com/meishi/179467353/,4.3,10条评论,人均￥4,渭滨区渭滨区经二路新开路1号
宝鸡,乐佳创意蛋糕（麦香村西饼屋）,97019500,107.160816,34.345906,107.1560315,34.3472137,http://baoji.meituan.com/meishi/c11b4300/,http://www.meituan.com/meishi/97019500/,5,175条评论,人均￥49,渭滨区相家庄市场口
宝鸡,ccake（经二路店）,152702358,107.143537,34.369536,107.1387281,34.3708033,http://baoji.meituan.com/meishi/c11b4300/,http://www.meituan.com/meishi/152702358/,5,258条评论,人均￥50,渭滨区经二路与汉中路十字向南200米（金美丽鲜花自提点）
宝鸡,太古咖啡（英达路店）,2285886,107.133637,34.356203,107.1288202,34.3574641,http://baoji.meituan.com/meishi/c11b4300/,http://www.meituan.com/meishi/2285886/,3.5,10条评论,人均￥36,渭滨区海关楼下英达路1号
宝鸡,吾饮良品,158644663,107.146611,34.372835,107.1418053,34.3741051,http://baoji.meituan.com/meishi/c11b4300/,http://www.meituan.com/meishi/158644663/,4.3,69条评论,人均￥7,渭滨区经一路步行街
宝鸡,红茶坊红品咖啡,6875184,107.145778,34.372903,107.1409713,34.3741718,http://baoji.meituan.com/meishi/c11b4300/,http://www.meituan.com/meishi/6875184/,3.9,109条评论,人均￥50,渭滨区汉中路25附1对面
宝鸡,老兵米线,160737166,107.132498,34.370687,107.1276792,34.3719393,http://baoji.meituan.com/meishi/c11b4300/,http://www.meituan.com/meishi/160737166/,3.5,2条评论,人均￥12,渭滨区陕西省宝鸡市渭滨区新建路12号
宝鸡,蜜宝家手工烘焙,169136272,107.136077,34.358932,107.1312619,34.3601947,http://baoji.meituan.com/meishi/c11b4300/,http://www.meituan.com/meishi/169136272/,暂无评,0条评论,人均￥10,渭滨区清姜路22号楼二单元0702号
宝鸡,美士派（华力集市桥南店）,170650608,107.137847,34.354316,107.1330338,34.3555833,http://baoji.meituan.com/meishi/c11b4300/,http://www.meituan.com/meishi/170650608/,暂无评,0条评论,人均￥15,渭滨区英达路13号
宝鸡,Ehome超级密室,158419090,0,39.9046669,0.0,39.9046669,http://baoji.meituan.com/meishi/c11b4300/,http://www.meituan.com/meishi/158419090/,5,125条评论,人均 -,渭滨区经二路银座大厦705（火车站）
宝鸡,优麦乐滋,184746171,107.182356,34.357286,107.1776047,34.3586279,http://baoji.meituan.com/meishi/c11b4301/,http://www.meituan.com/meishi/184746171/,5,52条评论,人均￥10,金台区黄家大道
宝鸡,心爱蛋糕,42135326,107.154455,34.375549,107.149659,34.3768303,http://baoji.meituan.com/meishi/c11b4301/,http://www.meituan.com/meishi/42135326/,4,1191条评论,人均￥15,金台区中山路与群众路交口北行30米路东（国人酒店旁）
宝鸡,猫猫家DIY烘焙,52869231,107.195958,34.361172,107.1912275,34.3625366,http://baoji.meituan.com/meishi/c11b4301/,http://www.meituan.com/meishi/52869231/,4.4,233条评论,人均￥9,金台区金台大道银泰城B座12楼1218
宝鸡,遇见私房蛋糕,186408358,107.114337,34.372681,107.1095128,34.3739174,http://baoji.meituan.com/meishi/c11b4301/,http://www.meituan.com/meishi/186408358/,4.6,13条评论,人均￥17,金台区新福南路58街区东口大红楼梯二楼（百翠园南面）
宝鸡,金大班蛋糕工坊,4524098,107.111641,34.37508,107.1068172,34.376314,http://baoji.meituan.com/meishi/c11b4301/,http://www.meituan.com/meishi/4524098/,4.8,380条评论,人均￥15,金台区新福路10号瑞祥花园
宝鸡,红豆西饼屋（马营店）,2707490,107.174982,34.366524,107.170218,34.3678473,http://baoji.meituan.com/meishi/c11b4301/,http://www.meituan.com/meishi/2707490/,4.4,87条评论,人均￥40,金台区上马营红卫路中段铁路小学斜对面
宝鸡,欧贝尔蛋糕房（百翠园店）,6180245,107.116015,34.377738,107.1111903,34.3789725,http://baoji.meituan.com/meishi/c11b4301/,http://www.meituan.com/meishi/6180245/,5,444条评论,人均￥25,金台区新福北路百翠园B区7号门面房
宝鸡,杭州蛋糕城,40086245,107.175161,34.36638,107.1703973,34.3677037,http://baoji.meituan.com/meishi/c11b4301/,http://www.meituan.com/meishi/40086245/,5,245条评论,人均￥38,金台区红卫路中段第一招待所对面
宝鸡,艾英伦手感烘焙（联盟南路店）,150010544,107.180725,34.359309,107.1759709,34.3606468,http://baoji.meituan.com/meishi/c11b4301/,http://www.meituan.com/meishi/150010544/,4.6,157条评论,人均￥10,金台区金台大道17号（联盟南路）
宝鸡,稻草香蛋糕房（新福园店）,92337942,107.104174,34.376858,107.0993535,34.3780895,http://baoji.meituan.com/meishi/c11b4301/,http://www.meituan.com/meishi/92337942/,3.6,30条评论,人均￥36,金台区新福路新福园南区大门东行30米
宝鸡,仙芋世家（新里城店）,165113986,107.169679,34.364217,107.1649067,34.3655316,http://baoji.meituan.com/meishi/c11b4301/,http://www.meituan.com/meishi/165113986/,3.5,22条评论,人均￥18,金台区石油机械厂对面新里城四楼
宝鸡,宝鸡市老式糕点,50012616,107.180846,34.371936,107.1760911,34.3732675,http://baoji.meituan.com/meishi/c11b4301/,http://www.meituan.com/meishi/50012616/,5,454条评论,人均￥10,金台区宝十路肉联厂向西50米对面（9、30路站台）
宝鸡,凯司令·凯旗（中粮店）,4200955,107.191819,34.36426,107.1870821,34.3656157,http://baoji.meituan.com/meishi/c11b4301/,http://www.meituan.com/meishi/4200955/,4,790条评论,人均￥37,金台区市中粮国际一楼门面
宝鸡,巴黎风谛（马营店）,6456449,107.173314,34.362908,107.1685476,34.36423,http://baoji.meituan.com/meishi/c11b4301/,http://www.meituan.com/meishi/6456449/,4.2,1357条评论,人均￥25,金台区跃进路3号楼
宝鸡,稻草香（东风路店）,91077118,107.175796,34.366282,107.1710334,34.367607,http://baoji.meituan.com/meishi/c11b4301/,http://www.meituan.com/meishi/91077118/,3,3条评论,人均￥36,金台区上马营红卫路铁路小区
宝鸡,麦香琪蛋糕屋（新福路店）,160808518,107.107857,34.376463,107.1030345,34.3776952,http://baoji.meituan.com/meishi/c11b4301/,http://www.meituan.com/meishi/160808518/,5,140条评论,人均￥20,金台区新福路豪城天下C区南门向西100米（豪城天下公交站牌）
宝鸡,MKF麦克风,4312449,107.15157,34.37464,107.1467702,34.375917,http://baoji.meituan.com/meishi/c11b4301/,http://www.meituan.com/meishi/4312449/,4.6,40条评论,人均￥7,金台区文化路北段（火车站后面）
宝鸡,乌煎道（银泰城店）,163270624,107.195019,34.360056,107.1902872,34.3614196,http://baoji.meituan.com/meishi/c11b4301/,http://www.meituan.com/meishi/163270624/,3.6,681条评论,人均￥12,金台区金台大道银泰城2F-15
宝鸡,艾英伦手感烘焙（联盟南路店）,150010544,107.180725,34.359309,107.1759709,34.3606468,http://baoji.meituan.com/meishi/c11b4301/,http://www.meituan.com/meishi/150010544/,4.6,157条评论,人均￥10,金台区金台大道17号（联盟南路）
宝鸡,金大班蛋糕工坊,4524098,107.111641,34.37508,107.1068172,34.376314,http://baoji.meituan.com/meishi/c11b4301/,http://www.meituan.com/meishi/4524098/,4.8,380条评论,人均￥15,金台区新福路10号瑞祥花园
宝鸡,芭比娃蛋糕,179141397,107.190237,34.359822,107.185498,34.3611772,http://baoji.meituan.com/meishi/c11b4301/,http://www.meituan.com/meishi/179141397/,5,25条评论,人均 -,金台区金台大道31号
宝鸡,御品轩（大庆路店）,184427708,107.206338,34.362879,107.2016216,34.3642599,http://baoji.meituan.com/meishi/c11b4301/,http://www.meituan.com/meishi/184427708/,3.5,6条评论,人均￥10,金台区大庆路华润万家负一层
宝鸡,mkf麦克风,156642475,107.156115,34.397083,107.1513196,34.3983554,http://baoji.meituan.com/meishi/c11b4301/,http://www.meituan.com/meishi/156642475/,3,3条评论,人均￥5,金台区宝平路12号（金台高级中学斜对面）
宝鸡,雀圣冰室,159612919,107.194451,34.360473,107.1897184,34.3618354,http://baoji.meituan.com/meishi/c11b4301/,http://www.meituan.com/meishi/159612919/,3.6,272条评论,人均￥15,金台区金台大道 银泰城 负一层
宝鸡,word tea我的茶,169189954,107.19405,34.360449,107.1893168,34.3618107,http://baoji.meituan.com/meishi/c11b4301/,http://www.meituan.com/meishi/169189954/,4.5,14条评论,人均￥23,金台区金台大道银泰城正对面东岭城市新天地
宝鸡,凯司令·凯旗（中粮店）,4200955,107.191819,34.36426,107.1870821,34.3656157,http://baoji.meituan.com/meishi/c11b4301/,http://www.meituan.com/meishi/4200955/,4,790条评论,人均￥37,金台区市中粮国际一楼门面
宝鸡,巴黎风谛（马营店）,6456449,107.173314,34.362908,107.1685476,34.36423,http://baoji.meituan.com/meishi/c11b4301/,http://www.meituan.com/meishi/6456449/,4.2,1357条评论,人均￥25,金台区跃进路3号楼
宝鸡,悠悠奶茶屋,51406378,107.155998,34.397125,107.1512024,34.3983971,http://baoji.meituan.com/meishi/c11b4301/,http://www.meituan.com/meishi/51406378/,4.2,21条评论,人均￥5,金台区宝平路11号金台高级中学斜对面
宝鸡,美味蛋糕西饼店,190408082,107.220803,34.365642,107.2161015,34.3670413,http://baoji.meituan.com/meishi/c11b4301/,http://www.meituan.com/meishi/190408082/,暂无评,0条评论,人均￥40,金台区秦岭市场
宝鸡,欧式脆皮蛋糕店,95786004,107.162044,34.376273,107.1572589,34.3775672,http://baoji.meituan.com/meishi/c11b4301/,http://www.meituan.com/meishi/95786004/,暂无评,0条评论,人均￥5,金台区中山东路街道人民路25号
宝鸡,法爵音乐面包,175259433,107.177032,34.356388,107.1722722,34.3577204,http://baoji.meituan.com/meishi/c11b4301/,http://www.meituan.com/meishi/175259433/,4.5,26条评论,人均￥14,金台区陈仓园二路轩苑紫郡1号楼1号商铺
宝鸡,东西+π³,177591711,107.199746,34.368033,107.1950204,34.3694005,http://baoji.meituan.com/meishi/c11b4301/,http://www.meituan.com/meishi/177591711/,4.1,13条评论,人均￥6,金台区宏文路17号
宝鸡,Word coffee,163520251,107.139894,34.386524,107.13508,34.387777,http://baoji.meituan.com/meishi/c11b4301/,http://www.meituan.com/meishi/163520251/,3.5,0条评论,人均 -,金台区西府老街景区A004号（三沣茶楼西100米）
宝鸡,嘻果记,164985748,107.169951,34.364449,107.1651791,34.3657639,http://baoji.meituan.com/meishi/c11b4301/,http://www.meituan.com/meishi/164985748/,4.1,69条评论,人均￥12,金台区东风路5号新里城3楼
宝鸡,东岭皇冠假日酒店彩丰楼中餐厅,179173117,107.196761,34.360467,107.1920318,34.3618334,http://baoji.meituan.com/meishi/c11b4301/,http://www.meituan.com/meishi/179173117/,3.5,2条评论,人均￥97,金台区金台大道
宝鸡,诗忆江南烘焙坊,156813289,107.175959,34.356005,107.1711975,34.3573356,http://baoji.meituan.com/meishi/c11b4301/,http://www.meituan.com/meishi/156813289/,3.5,4条评论,人均￥12,金台区陈仓园二路陈仓园市场门口
宝鸡,猫猫家DIY烘焙,52869231,107.195958,34.361172,107.1912275,34.3625366,http://baoji.meituan.com/meishi/c11b4301/,http://www.meituan.com/meishi/52869231/,4.4,233条评论,人均￥9,金台区金台大道银泰城B座12楼1218
宝鸡,谢小胖的甜甜屋,159159721,107.17318,34.372462,107.1684127,34.3737788,http://baoji.meituan.com/meishi/c11b4301/,http://www.meituan.com/meishi/159159721/,暂无评,1条评论,人均 -,金台区宝十路39号
宝鸡,爱上烘焙,163892289,107.155679,34.400769,107.1508827,34.4020385,http://baoji.meituan.com/meishi/c11b4301/,http://www.meituan.com/meishi/163892289/,3.7,20条评论,人均￥11,金台区宝平路21号高弟居小区1B号楼3号门面房
宝鸡,玛德琳焙烤（行政中心店）,6099921,107.24137,34.362188,107.2366775,34.3636063,http://baoji.meituan.com/meishi/c11b4301/,http://www.meituan.com/meishi/6099921/,4.3,352条评论,人均￥16,金台区宝虢路8号A区12号楼13号门面房
宝鸡,三木烘焙（斗鸡店）,84011423,107.200571,34.36821,107.1958466,34.3695788,http://baoji.meituan.com/meishi/c11b4301/,http://www.meituan.com/meishi/84011423/,3.5,5条评论,人均￥45,金台区斗中路
宝鸡,五谷面包坊,113166868,107.167443,34.365034,107.1626671,34.366344,http://baoji.meituan.com/meishi/c11b4301/,http://www.meituan.com/meishi/113166868/,暂无评,0条评论,人均 -,金台区东风路石油中学对面
宝鸡,奶酪蛋糕专卖,115879189,107.110986,34.375379,107.1061624,34.3766126,http://baoji.meituan.com/meishi/c11b4301/,http://www.meituan.com/meishi/115879189/,暂无评,0条评论,人均 -,金台区新福路瑞景花园1-18店
宝鸡,107㎡CAKE·哈尼手感烘焙,179418468,107.227797,34.36606,107.2231003,34.3674665,http://baoji.meituan.com/meishi/c11b4301/,http://www.meituan.com/meishi/179418468/,4.5,13条评论,人均 -,金台区宏文路盛世花园南门东行100米
宝鸡,红太阳蛋糕,42317860,107.204649,34.368268,107.19993,34.3696434,http://baoji.meituan.com/meishi/c11b4301/,http://www.meituan.com/meishi/42317860/,4.6,40条评论,人均 -,金台区宏文路111一112号（十二厂幼儿园西侧）
宝鸡,米乐烘焙,175154624,107.111592,34.375461,107.1067682,34.3766948,http://baoji.meituan.com/meishi/c11b4301/,http://www.meituan.com/meishi/175154624/,4.2,7条评论,人均￥20,金台区新福路轩苑新城2号楼3号
宝鸡,欧贝尔,186385606,107.162431,34.375647,107.1576465,34.3769422,http://baoji.meituan.com/meishi/c11b4301/,http://www.meituan.com/meishi/186385606/,暂无评,0条评论,人均￥30,金台区中山路人民街综合市场
宝鸡,红豆西饼屋（马营店）,2707490,107.174982,34.366524,107.170218,34.3678473,http://baoji.meituan.com/meishi/c11b4301/,http://www.meituan.com/meishi/2707490/,4.4,87条评论,人均￥40,金台区上马营红卫路中段铁路小学斜对面
宝鸡,好再来蛋糕房,42726724,107.2474,34.3604,107.2427069,34.3618215,http://baoji.meituan.com/meishi/c11b4301/,http://www.meituan.com/meishi/42726724/,暂无评,0条评论,人均 -,金台区行政大道8号
宝鸡,忆薇时光（花艺苑蛋糕）,51628342,107.129683,34.376009,107.124862,34.3772554,http://baoji.meituan.com/meishi/c11b4301/,http://www.meituan.com/meishi/51628342/,3.6,28条评论,人均￥100,金台区新宝路619号
宝鸡,仙芋世家（新里城店）,165113986,107.169679,34.364217,107.1649067,34.3655316,http://baoji.meituan.com/meishi/c11b4301/,http://www.meituan.com/meishi/165113986/,3.5,22条评论,人均￥18,金台区石油机械厂对面新里城四楼
宝鸡,SUNSET BAKERY日落烘焙（盛世广场店）,169457342,107.236526,34.367281,107.2318325,34.3686939,http://baoji.meituan.com/meishi/c11b4301/,http://www.meituan.com/meishi/169457342/,3.9,13条评论,人均￥22,金台区下塬路3号盛世广场
宝鸡,稻草香（东风路店）,91077118,107.175796,34.366282,107.1710334,34.367607,http://baoji.meituan.com/meishi/c11b4301/,http://www.meituan.com/meishi/91077118/,3,3条评论,人均￥36,金台区上马营红卫路铁路小区
宝鸡,wheayeast味·艺手作欧包,161837190,107.194107,34.359764,107.1893739,34.3611261,http://baoji.meituan.com/meishi/c11b4301/,http://www.meituan.com/meishi/161837190/,3.5,4条评论,人均￥26,金台区金台大道银泰城负一层
宝鸡,品华居·贝拉妮蛋糕店,175284743,107.279529,34.359434,107.2748051,34.360845,http://baoji.meituan.com/meishi/c11b4301/,http://www.meituan.com/meishi/175284743/,3.5,7条评论,人均 -,金台区陈仓大道朝阳华城46号楼门面
宝鸡,斯味特蛋糕,2837927,107.1543,34.375111,107.1495038,34.3763923,http://baoji.meituan.com/meishi/c11b4301/,http://www.meituan.com/meishi/2837927/,4.1,14条评论,人均 -,金台区中山东路248号国人商务酒店对面
宝鸡,网红蛋糕私人订制,188803771,107.175758,34.357029,107.1709961,34.3583587,http://baoji.meituan.com/meishi/c11b4301/,http://www.meituan.com/meishi/188803771/,暂无评,0条评论,人均￥45,金台区陈仓园金九商务宾馆向西100米
宝鸡,香思味蛋糕,158383461,107.156097,34.38055,107.1513029,34.3818314,http://baoji.meituan.com/meishi/c11b4301/,http://www.meituan.com/meishi/158383461/,暂无评,0条评论,人均￥10,金台区群众路街道民族花园一号楼一号门面
宝鸡,麦客福烘焙坊,95869687,107.401133,34.520259,107.3961313,34.5213956,http://baoji.meituan.com/meishi/c11b4303/,http://www.meituan.com/meishi/95869687/,5,264条评论,人均￥7,凤翔县东大街文昌巷34号巷口向里50米
宝鸡,美旗蛋糕,40050297,107.400397,34.521702,107.3953957,34.5228378,http://baoji.meituan.com/meishi/c11b4303/,http://www.meituan.com/meishi/40050297/,4.8,902条评论,人均 -,凤鸣广场秦凤路22号（凤凰十字向北20米路东3路公交站）
宝鸡,麦唯食品（凤翔店）,101996625,107.402591,34.527134,107.3975878,34.5282653,http://baoji.meituan.com/meishi/c11b4303/,http://www.meituan.com/meishi/101996625/,5,96条评论,人均￥10,凤翔县秦凤路北段凤鸣幼儿园对面
宝鸡,茶物语,157725251,107.407038,34.520129,107.4020333,34.5212649,http://baoji.meituan.com/meishi/c11b4303/,http://www.meituan.com/meishi/157725251/,5,171条评论,人均￥6,凤鸣广场城关镇东湖广场北门巴倒烫旁边
宝鸡,安粸蛋糕房,6677744,107.399737,34.520262,107.3947363,34.5213991,http://baoji.meituan.com/meishi/c11b4303/,http://www.meituan.com/meishi/6677744/,4.1,2235条评论,人均￥15,秦凤路秦凤路南段15号（秦凤路图书超市旁）
宝鸡,爱品客蛋糕屋,164717650,107.406216,34.516771,107.4012119,34.5179093,http://baoji.meituan.com/meishi/c11b4303/,http://www.meituan.com/meishi/164717650/,5,61条评论,人均￥28,凤翔县东湖路东湖西门南五十米
宝鸡,芝香坊西点屋,41450420,107.392416,34.523149,107.3874219,34.5242875,http://baoji.meituan.com/meishi/c11b4303/,http://www.meituan.com/meishi/41450420/,4.6,207条评论,人均￥13,凤翔县西大街法院对面
宝鸡,麦香蛋糕屋,40994869,107.40096,34.524271,107.3959581,34.5254048,http://baoji.meituan.com/meishi/c11b4303/,http://www.meituan.com/meishi/40994869/,4.2,195条评论,人均￥8,凤鸣广场秦凤路北段27号（县医院西门斜对面）
宝鸡,味多多蛋糕店,71604185,107.366182,34.472958,107.3612367,34.47416,http://baoji.meituan.com/meishi/c11b4303/,http://www.meituan.com/meishi/71604185/,4.1,5条评论,人均￥8,凤翔县南指挥镇十字路口西北角（12路公交站台对面）
宝鸡,祥和西饼店（凤翔店）,6955505,107.397356,34.51537,107.3923577,34.5165115,http://baoji.meituan.com/meishi/c11b4303/,http://www.meituan.com/meishi/6955505/,4.3,411条评论,人均￥14,秦凤路秦凤路路城南步行街口（交警队对面）
宝鸡,一品轩蛋糕,40986753,107.400905,34.524144,107.3959032,34.5252779,http://baoji.meituan.com/meishi/c11b4303/,http://www.meituan.com/meishi/40986753/,3.8,419条评论,人均￥6,凤鸣广场秦凤路28号（县医院西门小飞象母婴店对面）
宝鸡,千寻私家烘焙（长青路店）,163487414,107.391448,34.531991,107.3864543,34.5331236,http://baoji.meituan.com/meishi/c11b4303/,http://www.meituan.com/meishi/163487414/,4.2,21条评论,人均￥10,凤翔县长青路凤泉花园c4区3单元
宝鸡,紫罗兰蛋糕店,93758908,107.3931,34.517172,107.3881057,34.5183144,http://baoji.meituan.com/meishi/c11b4303/,http://www.meituan.com/meishi/93758908/,3.9,35条评论,人均 -,凤翔县南大街55号汽车站北
宝鸡,麦香村西饼屋（凤翔店）,112547866,107.40022,34.521383,107.3952189,34.5225191,http://baoji.meituan.com/meishi/c11b4303/,http://www.meituan.com/meishi/112547866/,3.4,147条评论,人均￥12,凤鸣广场秦凤路北段劳动就业管理局一楼（东大街与秦凤路交叉路口东北角）
宝鸡,金梦香蛋糕,77175456,107.396233,34.522369,107.3912351,34.523506,http://baoji.meituan.com/meishi/c11b4303/,http://www.meituan.com/meishi/77175456/,4,15条评论,人均 -,凤鸣广场北大街与东大街交叉口大十字东北角
宝鸡,红太阳蛋糕,77938955,107.394417,34.522512,107.3894208,34.5236498,http://baoji.meituan.com/meishi/c11b4303/,http://www.meituan.com/meishi/77938955/,4.3,28条评论,人均 -,凤翔县大十字西街口4号（西街农贸市场对面）
宝鸡,爱粒食品,5114469,107.39912,34.51857,107.3941199,34.5197085,http://baoji.meituan.com/meishi/c11b4303/,http://www.meituan.com/meishi/5114469/,3.4,751条评论,人均 -,秦凤路秦凤路凤栖家园底商（计生局南侧隔壁）
宝鸡,A里西蛋糕,6145558,107.406706,34.520461,107.4017014,34.5215966,http://baoji.meituan.com/meishi/c11b4303/,http://www.meituan.com/meishi/6145558/,3.8,29条评论,人均 -,凤鸣广场东关街与东湖路交叉口东100米
宝鸡,巴比克西餐厅（蔡家坡店）,6273054,107.614985,34.315647,107.6104,34.3172663,http://baoji.meituan.com/meishi/c11b4304/,http://www.meituan.com/meishi/6273054/,4.7,5104条评论,人均￥26,蔡家坡蔡家坡西一路南段
宝鸡,甜心烘焙,157144601,107.624876,34.314687,107.6202824,34.3162995,http://baoji.meituan.com/meishi/c11b4304/,http://www.meituan.com/meishi/157144601/,4.9,40条评论,人均 -,蔡家坡蔡家坡凤凰路凤凰现代城西门口（经开一小向北100米）
宝鸡,甜心麦蛋糕,166783748,107.641484,34.443771,107.6368567,34.445294,http://baoji.meituan.com/meishi/c11b4304/,http://www.meituan.com/meishi/166783748/,5,14条评论,人均 -,岐山县北环路文景园小区1栋2号商铺
宝鸡,欧式蛋糕（岐山家美佳店）,71439846,107.630085,34.440163,107.6254752,34.4417028,http://baoji.meituan.com/meishi/c11b4304/,http://www.meituan.com/meishi/71439846/,4.8,98条评论,人均￥18,凤东路凤鸣东路家美佳超市斜对面路南
宝鸡,七号花园蛋糕店,165919197,107.616739,34.311803,107.6121531,34.3134231,http://baoji.meituan.com/meishi/c11b4304/,http://www.meituan.com/meishi/165919197/,4.5,18条评论,人均 -,岐山县蔡家坡渭北西路锦绣江南底商
宝鸡,美旗蛋糕,50739157,107.628673,34.44654,107.6240645,34.4480773,http://baoji.meituan.com/meishi/c11b4304/,http://www.meituan.com/meishi/50739157/,4.3,320条评论,人均￥23,北大街凤鸣镇北环路华宇小区底商
宝鸡,好莱屋蛋糕,4773635,107.602909,34.322506,107.5983279,34.3241257,http://baoji.meituan.com/meishi/c11b4304/,http://www.meituan.com/meishi/4773635/,4.4,270条评论,人均￥40,蔡家坡蔡家坡人民东路陕西信合对面
宝鸡,奇艺蛋糕房,5290957,107.5994,34.32329,107.5948187,34.3249091,http://baoji.meituan.com/meishi/c11b4304/,http://www.meituan.com/meishi/5290957/,4.3,607条评论,人均￥23,蔡家坡蔡家坡解放路中心幼儿园隔壁（车站小学旁）
宝鸡,麦香屋蛋糕房,4150834,107.605015,34.319317,107.6004339,34.320938,http://baoji.meituan.com/meishi/c11b4304/,http://www.meituan.com/meishi/4150834/,4,694条评论,人均￥18,蔡家坡蔡家坡西三路兴建大厦一楼
宝鸡,MyBakery/百乐,4872148,107.604789,34.319164,107.6002079,34.3207851,http://baoji.meituan.com/meishi/c11b4304/,http://www.meituan.com/meishi/4872148/,3.6,1312条评论,人均￥15,蔡家坡蔡家坡老实人超市出口北边
宝鸡,老地方见,107155916,107.605376,34.319177,107.6007948,34.320798,http://baoji.meituan.com/meishi/c11b4304/,http://www.meituan.com/meishi/107155916/,4.1,11条评论,人均￥5,蔡家坡蔡家坡西三路兴建美食城南门口（蔡家坡佳美佳）
宝鸡,巴米娅,50152256,107.634169,34.442048,107.6295534,34.4435819,http://baoji.meituan.com/meishi/c11b4304/,http://www.meituan.com/meishi/50152256/,4.1,149条评论,人均￥28,凤东路医苑路城北小区楼下门面（汽车站南300米路东怡家宾馆对面）
宝鸡,吉米蛋糕,5370786,107.599412,34.322736,107.5948308,34.3243554,http://baoji.meituan.com/meishi/c11b4304/,http://www.meituan.com/meishi/5370786/,4.3,107条评论,人均 -,蔡家坡蔡家坡解放路新华书店向北18米路西
宝鸡,圆红艺术蛋糕房,40335093,107.594463,34.325215,107.5898803,34.3268321,http://baoji.meituan.com/meishi/c11b4304/,http://www.meituan.com/meishi/40335093/,4.4,179条评论,人均￥14,蔡家坡超美佳连锁超市蔡家坡店东（工农路）
宝鸡,甜品驿站,98886230,107.628683,34.442532,107.6240748,34.4440718,http://baoji.meituan.com/meishi/c11b4304/,http://www.meituan.com/meishi/98886230/,4.4,123条评论,人均￥17,凤东路凤鸣古街北65号
宝鸡,欧式蛋糕,164293696,107.62479,34.441186,107.6201865,34.4427305,http://baoji.meituan.com/meishi/c11b4304/,http://www.meituan.com/meishi/164293696/,3.5,6条评论,人均 -,北大街南大街县一中往北50米
宝鸡,Max Cake麦克斯烘焙坊,184314555,107.629545,34.441352,107.6249358,34.4428916,http://baoji.meituan.com/meishi/c11b4304/,http://www.meituan.com/meishi/184314555/,3,2条评论,人均 -,岐山县凤东路天乐幼儿园斜对面
宝鸡,康利来蛋糕房,41403684,107.614982,34.28365,107.6103996,34.2852835,http://baoji.meituan.com/meishi/c11b4304/,http://www.meituan.com/meishi/41403684/,3.8,252条评论,人均￥16,岐山县蔡家坡五丈原大十字路口（万家乐超市东侧10米）
宝鸡,泰芒了,163941525,107.623535,34.323517,107.6189421,34.3251266,http://baoji.meituan.com/meishi/c11b4304/,http://www.meituan.com/meishi/163941525/,3.5,3条评论,人均 -,岐山县蔡家坡镇关中天下百鸟朝凤广场西侧D-77
宝鸡,艾依蛋糕,41216852,107.614523,34.312767,107.6099386,34.3143879,http://baoji.meituan.com/meishi/c11b4304/,http://www.meituan.com/meishi/41216852/,4.1,314条评论,人均￥16,蔡家坡蔡家坡西一路世纪家园楼下门面房
宝鸡,超美佳超市蛋糕房,71734683,107.594215,34.325166,107.5896322,34.326783,http://baoji.meituan.com/meishi/c11b4304/,http://www.meituan.com/meishi/71734683/,3.8,174条评论,人均￥28,蔡家坡工农路超美佳超市内
宝鸡,喵巷甜品,157385755,107.628049,34.442575,107.6234416,34.4441155,http://baoji.meituan.com/meishi/c11b4304/,http://www.meituan.com/meishi/157385755/,3.5,7条评论,人均￥14,岐山县凤鸣古街南排64号喵巷甜品
宝鸡,至爱西饼屋,40102815,107.625394,34.442037,107.6207898,34.4435804,http://baoji.meituan.com/meishi/c11b4304/,http://www.meituan.com/meishi/40102815/,3.6,165条评论,人均￥23,北大街凤鸣东路农业银行东侧第二家（中国农业银行东邻）
宝鸡,锦华蛋糕房（蔡家坡西二路）,40690861,107.60933,34.31845,107.6047478,34.3200704,http://baoji.meituan.com/meishi/c11b4304/,http://www.meituan.com/meishi/40690861/,3.5,1条评论,人均￥10,蔡家坡蔡家坡凤凰西路南侧陕九三区（西二路大森购物广场对面）
宝鸡,老上海蛋糕房,95900564,107.623871,34.437754,107.6192688,34.4393014,http://baoji.meituan.com/meishi/c11b4304/,http://www.meituan.com/meishi/95900564/,暂无评,0条评论,人均 -,岐山县青化镇南大街邮局斜对面
宝鸡,小熊西饼屋,40609203,107.891444,34.371894,107.8868953,34.3734789,http://baoji.meituan.com/meishi/c11b4305/,http://www.meituan.com/meishi/40609203/,5,961条评论,人均￥10,南二路新区西二路南段（兆兴十字向南200米，马路西侧）
宝鸡,甜梦烘焙,164779041,107.901794,34.379023,107.897253,34.3806083,http://baoji.meituan.com/meishi/c11b4305/,http://www.meituan.com/meishi/164779041/,5,105条评论,人均￥36,扶风新区电影院斜对面S-928（近天籁音乐城）
宝鸡,米苏西饼,42292893,107.89358,34.373598,107.8890333,34.3751833,http://baoji.meituan.com/meishi/c11b4305/,http://www.meituan.com/meishi/42292893/,5,72条评论,人均￥27,南二路南二路金马花园门口
宝鸡,海珀蘭轩,42147772,107.892107,34.371777,107.887559,34.3733624,http://baoji.meituan.com/meishi/c11b4305/,http://www.meituan.com/meishi/42147772/,3.8,812条评论,人均￥22,南二路西二路百合小区金石KTV斜对面（仁和医院隔壁）
宝鸡,丰利来蛋糕房,98810394,107.88146,34.35742,107.8768997,34.3590044,http://baoji.meituan.com/meishi/c11b4305/,http://www.meituan.com/meishi/98810394/,4.8,33条评论,人均 -,扶风东街飞凤市场前楼1号
宝鸡,麦克风（扶风店）,40942608,107.900979,34.381023,107.8964374,34.3826071,http://baoji.meituan.com/meishi/c11b4305/,http://www.meituan.com/meishi/40942608/,4.1,10条评论,人均￥5,扶风鼎盛大厦西门
宝鸡,迈德思客（绛帐店）,97717751,107.951627,34.273737,107.9470561,34.2753271,http://baoji.meituan.com/meishi/c11b4305/,http://www.meituan.com/meishi/97717751/,3.9,242条评论,人均￥15,扶风绛帐镇车站街道多美汇超市东15米
宝鸡,安旗,61263136,107.896214,34.375128,107.8916695,34.3767137,http://baoji.meituan.com/meishi/c11b4305/,http://www.meituan.com/meishi/61263136/,3,1896条评论,人均￥34,南二路南一路老实人超市对面
宝鸡,白小姐的店,42172215,107.904697,34.378746,107.9001574,34.3803318,http://baoji.meituan.com/meishi/c11b4305/,http://www.meituan.com/meishi/42172215/,3.7,207条评论,人均￥28,扶风新区国风三千坊商铺（关中风情园西门对面）
宝鸡,丹青阁,170001262,107.903833,34.426852,107.8992892,34.4284104,http://baoji.meituan.com/meishi/c11b4305/,http://www.meituan.com/meishi/170001262/,3.5,4条评论,人均￥8,扶风107省道法门寺文化景区内佛光阁大酒店北行20米
宝鸡,爱尚轰趴餐厅,171038268,107.8954,34.373065,107.890855,34.3746514,http://baoji.meituan.com/meishi/c11b4305/,http://www.meituan.com/meishi/171038268/,3,2条评论,人均￥11,扶风南大街与南二路交口祥云新城A楼商底（祥云快捷酒店楼下）
宝鸡,遇见手撕面包,165843444,107.895968,34.373649,107.8914234,34.3752354,http://baoji.meituan.com/meishi/c11b4305/,http://www.meituan.com/meishi/165843444/,3.5,2条评论,人均 -,南二路南二路南大街益元市场夜市美食街内
宝鸡,水瓶座甜品店,159454588,107.76226,34.262839,107.7574735,34.2642978,http://baoji.meituan.com/meishi/c11b4306/,http://www.meituan.com/meishi/159454588/,3.5,0条评论,人均 -,眉县安阳街盛和佳苑9号门面
宝鸡,初见私房甜品店（眉县店）,184940653,107.753155,34.274554,107.7483648,34.2760072,http://baoji.meituan.com/meishi/c11b4306/,http://www.meituan.com/meishi/184940653/,4.8,23条评论,人均￥50,首善街荣华路工人俱乐部
宝鸡,老上海烘焙,42652807,107.751282,34.271574,107.746492,34.2730286,http://baoji.meituan.com/meishi/c11b4306/,http://www.meituan.com/meishi/42652807/,4.4,619条评论,人均￥23,渭阳路美阳街二道巷中段康复门诊部旁
宝鸡,伟英蛋糕房,79528762,107.751563,34.271369,107.746773,34.2728237,http://baoji.meituan.com/meishi/c11b4306/,http://www.meituan.com/meishi/79528762/,4.6,290条评论,人均￥50,渭阳路二道巷中段老凤祥斜对面门朝西开（山东炒货北隔壁）
宝鸡,欧爱西点（东关小学店）,5350442,107.753795,34.267422,107.7490055,34.2688781,http://baoji.meituan.com/meishi/c11b4306/,http://www.meituan.com/meishi/5350442/,4.1,1041条评论,人均￥10,眉县群众路与美阳街交叉口南行120米路西（东关小学门口北侧）
宝鸡,祥和西饼,41067353,107.752479,34.269611,107.7476892,34.2710663,http://baoji.meituan.com/meishi/c11b4306/,http://www.meituan.com/meishi/41067353/,4,604条评论,人均￥19,渭阳路美阳街中段经济小区门口（海澜之家正对面）
宝鸡,麦田坊蛋糕店,180640115,107.782957,34.211637,107.778195,34.2131282,http://baoji.meituan.com/meishi/c11b4306/,http://www.meituan.com/meishi/180640115/,4.6,16条评论,人均 -,眉县金渠镇文化街
宝鸡,安旗（眉县旗舰店）,165724053,107.751733,34.272887,107.7469429,34.274341,http://baoji.meituan.com/meishi/c11b4306/,http://www.meituan.com/meishi/165724053/,3.6,82条评论,人均 -,眉县金谷世界城一楼商铺
宝鸡,壹晨咖啡,179282952,107.762761,34.26642,107.7579745,34.2678775,http://baoji.meituan.com/meishi/c11b4306/,http://www.meituan.com/meishi/179282952/,3.5,0条评论,人均 -,眉县美阳街张载广场南侧壹晨国际酒店大厅
宝鸡,喜之园蛋糕屋,104397984,107.71508,34.210565,107.7103237,34.2120715,http://baoji.meituan.com/meishi/c11b4306/,http://www.meituan.com/meishi/104397984/,3.5,3条评论,人均 -,眉县齐镇北街邮局对面
宝鸡,麦淇卡烘焙坊,94035354,107.90398,34.131131,107.8994595,34.1328155,http://baoji.meituan.com/meishi/c11b4306/,http://www.meituan.com/meishi/94035354/,4,8条评论,人均￥20,眉县太白山水岸商业街中段
宝鸡,晴天见鸡排茶饮小吃,178012981,107.747992,34.270911,107.7432023,34.2723666,http://baoji.meituan.com/meishi/c11b4306/,http://www.meituan.com/meishi/178012981/,暂无评,3条评论,人均 -,美阳街美阳街56号（中国工商银行西行15米路南）
宝鸡,望湖香榭,177748163,107.769065,34.285759,107.7642812,34.287211,http://baoji.meituan.com/meishi/c11b4306/,http://www.meituan.com/meishi/177748163/,暂无评,0条评论,人均 -,渭水乐园尚德路逸城渭水乐园莱茵小镇一楼门面
宝鸡,面包私语,52620063,106.855529,34.892984,106.851252,34.8941029,http://baoji.meituan.com/meishi/c11b4307/,http://www.meituan.com/meishi/52620063/,5,132条评论,人均￥30,陇县西关街佳美家超市后门东侧
宝鸡,老上海蛋糕房,62166828,106.857187,34.890557,106.8529122,34.8916813,http://baoji.meituan.com/meishi/c11b4307/,http://www.meituan.com/meishi/62166828/,4.6,374条评论,人均￥40,陇县南大街与南道巷十字东北角
宝鸡,欧贝拉,91884519,106.854296,34.89271,106.8500174,34.8938271,http://baoji.meituan.com/meishi/c11b4307/,http://www.meituan.com/meishi/91884519/,4.1,80条评论,人均￥20,陇县西关街工商所对面楼下
宝鸡,香友缘蛋糕坊,180397388,106.85829,34.89686,106.854016,34.8979792,http://baoji.meituan.com/meishi/c11b4307/,http://www.meituan.com/meishi/180397388/,4.4,10条评论,人均￥27,陇县北水文苑斜对面
宝鸡,网红蛋糕私人订制（陇县店）,189070045,106.853228,34.89293,106.848948,34.8940451,http://baoji.meituan.com/meishi/c11b4307/,http://www.meituan.com/meishi/189070045/,4.5,8条评论,人均￥40,陇县西大街
宝鸡,蛋糕私语,164427713,106.85643,34.889381,106.8521544,34.8905053,http://baoji.meituan.com/meishi/c11b4307/,http://www.meituan.com/meishi/164427713/,3.5,1条评论,人均 -,陇县南大街32-3号（新空间量贩KTV隔壁）
宝鸡,金皇麦蛋糕,52059446,106.85426,34.894128,106.8499813,34.8952435,http://baoji.meituan.com/meishi/c11b4307/,http://www.meituan.com/meishi/52059446/,3.5,10条评论,人均 -,陇县尚德路木材公司楼下（家美佳西侧50米）
宝鸡,爱心蛋糕房,91132288,106.855,34.894341,106.8507222,34.8954575,http://baoji.meituan.com/meishi/c11b4307/,http://www.meituan.com/meishi/91132288/,3.6,27条评论,人均 -,陇县北关路家美佳斜对面（巴扎巷口正对面）
宝鸡,多味美面包店,97480629,106.851062,34.892784,106.8467791,34.8938955,http://baoji.meituan.com/meishi/c11b4307/,http://www.meituan.com/meishi/97480629/,3.5,1条评论,人均 -,陇县西大街郑家巷斜对面（秦西伊甸轩一楼门面）
宝鸡,安旗烘焙（西关店）,150278539,106.856518,34.89269,106.8522422,34.8938109,http://baoji.meituan.com/meishi/c11b4307/,http://www.meituan.com/meishi/150278539/,3,38条评论,人均 -,陇县西大街7号（西关小学对面）
宝鸡,米可亲子水趣体验馆,121064265,106.851321,34.896373,106.8470382,34.897481,http://baoji.meituan.com/meishi/c11b4307/,http://www.meituan.com/meishi/121064265/,3.5,0条评论,人均 -,陇县新民巷东紫花城商铺（县医院后门）
宝鸡,忆果时光（陇县店）,179651456,106.856879,34.892635,106.8526037,34.8937565,http://baoji.meituan.com/meishi/c11b4307/,http://www.meituan.com/meishi/179651456/,暂无评,0条评论,人均￥6,陇县西大街南大街1号
宝鸡,老上海蛋糕房（千阳店）,99926619,107.127714,34.643375,107.1228701,34.6444299,http://baoji.meituan.com/meishi/c11b4308/,http://www.meituan.com/meishi/99926619/,4.9,74条评论,人均￥16,千阳县城关镇西大街（城关综合楼下）
宝鸡,零下一度,99173129,107.130855,34.642035,107.126013,34.6430943,http://baoji.meituan.com/meishi/c11b4308/,http://www.meituan.com/meishi/99173129/,4.5,58条评论,人均￥6,千阳县华御金座步行街（夜市对面）23号（毛记冒菜）
宝鸡,欣欣蛋糕房（东大街店）,81935716,107.130998,34.642453,107.126156,34.6435121,http://baoji.meituan.com/meishi/c11b4308/,http://www.meituan.com/meishi/81935716/,4.1,24条评论,人均￥10,千阳县文化馆正对面（电影院楼下）
宝鸡,麦香村西饼屋（文理学院店）,4673670,107.211836,34.346433,107.2071274,34.3478304,http://baoji.meituan.com/meishi/c11b13688/,http://www.meituan.com/meishi/4673670/,4.1,1407条评论,人均￥47,高新区高新大道新文理对面公交车站向东30米
宝鸡,仙芋世家,4994026,107.228634,34.345989,107.2239393,34.3474065,http://baoji.meituan.com/meishi/c11b13688/,http://www.meituan.com/meishi/4994026/,3.8,1956条评论,人均￥17,高新区高新四路（和谐路）天下汇购物中心三层
宝鸡,真美味,41297480,107.210063,34.34657,107.2053524,34.3479648,http://baoji.meituan.com/meishi/c11b13688/,http://www.meituan.com/meishi/41297480/,4.9,1295条评论,人均￥30,高新区高新大道水木清华步行街南20米
宝鸡,爱焙客蛋糕店生日蛋糕,91551744,107.221929,34.350812,107.2172295,34.3522202,http://baoji.meituan.com/meishi/c11b13688/,http://www.meituan.com/meishi/91551744/,5,309条评论,人均 -,高新区锦绣路水韵江南南门一楼商铺
宝鸡,爱麦儿,51776193,107.207138,34.342238,107.2024242,34.3436305,http://baoji.meituan.com/meishi/c11b13688/,http://www.meituan.com/meishi/51776193/,4.8,102条评论,人均￥30,高新区高新一路高新中学南侧
宝鸡,尝来蛋糕屋,6031838,107.21666,34.34479,107.2119565,34.3461947,http://baoji.meituan.com/meishi/c11b13688/,http://www.meituan.com/meishi/6031838/,4.6,71条评论,人均￥12,高新区高新二路中段（路东）
宝鸡,玛德琳烘焙（高新四路店）,91304228,107.227927,34.348487,107.2232317,34.3499026,http://baoji.meituan.com/meishi/c11b13688/,http://www.meituan.com/meishi/91304228/,4.8,370条评论,人均￥18,高新区高新开发区高新四路8号院4幢1层8号
宝鸡,金麦园蛋糕店,41630224,107.212548,34.346421,107.2078402,34.3478194,http://baoji.meituan.com/meishi/c11b13688/,http://www.meituan.com/meishi/41630224/,3.5,51条评论,人均￥50,高新区高新大道29号
宝鸡,御品轩（东高新店）,2286053,107.227405,34.346761,107.2227096,34.348177,http://baoji.meituan.com/meishi/c11b13688/,http://www.meituan.com/meishi/2286053/,3.8,1697条评论,人均￥19,高新区高新大道61号新天地（近人人乐）
宝鸡,那特蛋糕,42486056,107.227601,34.35302,107.2229052,34.354433,http://baoji.meituan.com/meishi/c11b13688/,http://www.meituan.com/meishi/42486056/,4.1,149条评论,人均￥18,高新区滨河路38号新城河滨北门2-1-7商铺（高新大厦西侧）
宝鸡,HEYJUICE茶桔便,160699435,107.228582,34.345706,107.2238873,34.3471236,http://baoji.meituan.com/meishi/c11b13688/,http://www.meituan.com/meishi/160699435/,5,594条评论,人均￥11,高新区高新大道聚丰天下汇5F
宝鸡,饴蜜甜品店,161875901,107.226067,34.345266,107.2213709,34.3466814,http://baoji.meituan.com/meishi/c11b13688/,http://www.meituan.com/meishi/161875901/,5,79条评论,人均￥10,高新区高新四路万润国际A座一单元
宝鸡,赛拉维（高新天下汇店）,161881982,107.228688,34.346102,107.2239933,34.3475195,http://baoji.meituan.com/meishi/c11b13688/,http://www.meituan.com/meishi/161881982/,3.6,198条评论,人均￥29,高新区高新大道天下汇高新店1F西厅
宝鸡,柒点私房甜品店,162187046,107.231811,34.347956,107.2271176,34.3493753,http://baoji.meituan.com/meishi/c11b13688/,http://www.meituan.com/meishi/162187046/,3.5,5条评论,人均 -,高新区渭滨区高新大道蟠龙路北段华夏世界城5号楼A 座1705
宝鸡,蜜菓茶语,163507422,107.213887,34.346587,107.2091806,34.3479872,http://baoji.meituan.com/meishi/c11b13688/,http://www.meituan.com/meishi/163507422/,4.5,40条评论,人均￥12,高新区高新大道326号（文理学院招呼站对面）
宝鸡,摩点烘焙（高新店）,164198281,107.230242,34.348316,107.2255479,34.3497338,http://baoji.meituan.com/meishi/c11b13688/,http://www.meituan.com/meishi/164198281/,3,2条评论,人均￥28,高新区广场东路星钻国际1栋B-13号
宝鸡,新西兰岩烧乳酪,164395089,107.229661,34.345717,107.2249669,34.3471356,http://baoji.meituan.com/meishi/c11b13688/,http://www.meituan.com/meishi/164395089/,3.8,20条评论,人均￥10,高新区高新大道48号聚丰天下汇4楼
宝鸡,阳光饼屋烘焙坊,164464857,107.26484,34.345332,107.2601368,34.3467598,http://baoji.meituan.com/meishi/c11b13688/,http://www.meituan.com/meishi/164464857/,4.6,40条评论,人均 -,高新区八鱼镇孙家滩市场
宝鸡,贡茶,164585297,107.231,34.34564,107.2263065,34.3470598,http://baoji.meituan.com/meishi/c11b13688/,http://www.meituan.com/meishi/164585297/,3,2条评论,人均￥8,高新区马营镇蟠龙路财富大厦中29号（高新五路）
宝鸡,ccake（高新店）,165115892,107.229083,34.345509,107.2243886,34.3469272,http://baoji.meituan.com/meishi/c11b13688/,http://www.meituan.com/meishi/165115892/,5,101条评论,人均￥50,高新区高新大道天下汇步行街（莔莔酸奶牛自提点）
宝鸡,莔莔酸奶牛（高新祖母厨房店）,166545673,107.227201,34.346798,107.2225055,34.3482137,http://baoji.meituan.com/meishi/c11b13688/,http://www.meituan.com/meishi/166545673/,3.6,59条评论,人均￥10,高新区高新大道祖母厨房旁
宝鸡,黄记玉米汁,179137971,107.229544,34.346053,107.2248498,34.3474713,http://baoji.meituan.com/meishi/c11b13688/,http://www.meituan.com/meishi/179137971/,3.5,22条评论,人均￥10,高新区高新大道48号高新天下汇5楼
宝鸡,雀圣冰室（高新天下汇店）,179142115,107.22877,34.345844,107.2240754,34.3472617,http://baoji.meituan.com/meishi/c11b13688/,http://www.meituan.com/meishi/179142115/,3.5,5条评论,人均￥15,高新区高新大道高新天下汇4楼西侧
宝鸡,台湾花之林茶餐厅（高新店）,82663835,107.227792,34.346112,107.2230968,34.3475287,http://baoji.meituan.com/meishi/c11b13688/,http://www.meituan.com/meishi/82663835/,4.5,770条评论,人均￥49,高新区高新四路万润国际3楼
宝鸡,mumu奶茶店,179711442,107.227557,34.347874,107.2228616,34.3492895,http://baoji.meituan.com/meishi/c11b13688/,http://www.meituan.com/meishi/179711442/,3.7,7条评论,人均￥6,高新区高新大道65号美墅小区南门5幢1层3号
宝鸡,巴黎风谛（高新店）,100975374,107.226557,34.345982,107.2218611,34.3473975,http://baoji.meituan.com/meishi/c11b13688/,http://www.meituan.com/meishi/100975374/,4.8,125条评论,人均￥30,高新区高新大道万润国际门店
宝鸡,爱琴海音乐餐厅,184049167,107.231553,34.35242,107.2268592,34.3538369,http://baoji.meituan.com/meishi/c11b13688/,http://www.meituan.com/meishi/184049167/,暂无评,0条评论,人均￥30,高新区广场东路滨河路66号
宝鸡,莓兽,186949743,107.22935,34.34585,107.2246557,34.3472682,http://baoji.meituan.com/meishi/c11b13688/,http://www.meituan.com/meishi/186949743/,4.2,11条评论,人均￥17,高新区马营镇高新大道48号（天下汇三楼）
宝鸡,芝芝舒芙蕾,190883264,107.229182,34.345814,107.2244876,34.3472321,http://baoji.meituan.com/meishi/c11b13688/,http://www.meituan.com/meishi/190883264/,4.5,19条评论,人均￥19,高新区高新区马营镇高新大道48号高新天下汇五楼西侧
宝鸡,LiAo house猫咪主题咖啡厅,191143612,107.226098,34.346018,107.2214018,34.347433,http://baoji.meituan.com/meishi/c11b13688/,http://www.meituan.com/meishi/191143612/,3.5,4条评论,人均￥20,高新区高新四路万润国际西门A座一单元20楼2004室
宝鸡,青鹿,110537508,107.209554,34.346357,107.2048428,34.3477511,http://baoji.meituan.com/meishi/c11b13688/,http://www.meituan.com/meishi/110537508/,5,113条评论,人均￥23,高新区高新大道宝石明德沁园34号楼二单元三楼东户
宝鸡,醇享悦然,104673903,107.226897,34.347815,107.2222012,34.3492299,http://baoji.meituan.com/meishi/c11b13688/,http://www.meituan.com/meishi/104673903/,4,253条评论,人均￥43,高新区高新四路8号院6幢1层6号
宝鸡,米旗（高新店）,96237336,107.226529,34.346182,107.2218331,34.3475974,http://baoji.meituan.com/meishi/c11b13688/,http://www.meituan.com/meishi/96237336/,3.6,272条评论,人均￥33,高新区高新开发区高新四路万润国际一层
宝鸡,第一时间烘培工坊,94938025,107.21024,34.345554,107.2055297,34.3469495,http://baoji.meituan.com/meishi/c11b13688/,http://www.meituan.com/meishi/94938025/,4.3,36条评论,人均￥50,高新区高新大道水木清华步行街内50米
宝鸡,一只酸奶牛（高新天下汇店）,162154728,107.22942,34.345961,107.2247257,34.3473792,http://baoji.meituan.com/meishi/c11b13688/,http://www.meituan.com/meishi/162154728/,4.5,958条评论,人均￥13,高新区高新大道44号高新天下汇四楼
宝鸡,贡茶,157783505,107.210082,34.342892,107.2053717,34.3442886,http://baoji.meituan.com/meishi/c11b13688/,http://www.meituan.com/meishi/157783505/,4.2,96条评论,人均￥8,高新区宝鸡新文理学院水木清华步行街北口100米
宝鸡,优芝朵烘焙工坊,61415308,107.210302,34.346518,107.2055916,34.3479131,http://baoji.meituan.com/meishi/c11b13688/,http://www.meituan.com/meishi/61415308/,3.6,16条评论,人均 -,高新区高新大道文理学院南门对面（水木清华步行街商铺）
宝鸡,欧贝尔蛋糕（高新店）,41231450,107.227988,34.343188,107.2232932,34.3446063,http://baoji.meituan.com/meishi/c11b13688/,http://www.meituan.com/meishi/41231450/,3.5,4条评论,人均 -,高新区康福路永泰茗苑门面房
宝鸡,幸运爱焙客生日蛋糕,160444314,107.221739,34.350823,107.2170394,34.3522309,http://baoji.meituan.com/meishi/c11b13688/,http://www.meituan.com/meishi/160444314/,5,104条评论,人均 -,高新区锦绣路高新4路2号院1栋19号
宝鸡,HeHe,162956951,107.211368,34.343993,107.2066591,34.3453909,http://baoji.meituan.com/meishi/c11b13688/,http://www.meituan.com/meishi/162956951/,3.5,2条评论,人均￥25,高新区高新大道水木清华小区10号楼一单元1201
宝鸡,答案茶,169469083,107.22942,34.345961,107.2247257,34.3473792,http://baoji.meituan.com/meishi/c11b13688/,http://www.meituan.com/meishi/169469083/,4.1,182条评论,人均￥16,高新区高新大道天下汇购物广场4楼
宝鸡,猫先森,170168519,107.227059,34.347246,107.2223633,34.3486614,http://baoji.meituan.com/meishi/c11b13688/,http://www.meituan.com/meishi/170168519/,5,102条评论,人均 -,高新区高新四路半融金国际向北50米城市新天地3F
宝鸡,台铺奶茶,178761067,107.229417,34.345817,107.2247227,34.3472353,http://baoji.meituan.com/meishi/c11b13688/,http://www.meituan.com/meishi/178761067/,3.8,24条评论,人均￥15,高新区高新大道48号（天下汇五楼）
宝鸡,格调佳人咖啡,179683866,107.22818,34.349918,107.2234848,34.3513331,http://baoji.meituan.com/meishi/c11b13688/,http://www.meituan.com/meishi/179683866/,暂无评,0条评论,人均￥24,高新区广场西路
宝鸡,OrZTea丧茶,188859633,107.232017,34.346145,107.2273239,34.3475654,http://baoji.meituan.com/meishi/c11b13688/,http://www.meituan.com/meishi/188859633/,3.5,3条评论,人均￥17,高新区高新开发区马营镇高新大道50号
宝鸡,食尚街·壹个人火锅,169643643,107.23472,34.365758,107.2300262,34.3671705,http://baoji.meituan.com/meishi/c17b4302/,http://www.meituan.com/meishi/169643643/,5,404条评论,人均￥43,陈仓区陈仓大道盛世广场食尚街二期内（行政中心北侧）
宝鸡,理想大虾养生火锅（千渭星城店）,184931452,107.330536,34.356777,107.325692,34.3581103,http://baoji.meituan.com/meishi/c17b4302/,http://www.meituan.com/meishi/184931452/,5,108条评论,人均￥45,陈仓区陈仓大道千渭星城D区星都汇商场2楼
宝鸡,鱼LOVE虾生态主题火锅,89937045,107.371301,34.352121,107.3663549,34.353386,http://baoji.meituan.com/meishi/c17b4302/,http://www.meituan.com/meishi/89937045/,4.7,299条评论,人均￥47,陈仓区虢镇财富街一排9号（原神石咕噜鱼）
宝鸡,码头时光,95189951,107.37714,34.3527,107.3721827,34.3539573,http://baoji.meituan.com/meishi/c17b4302/,http://www.meituan.com/meishi/95189951/,4.9,427条评论,人均￥32,陈仓区虢镇步行街东排中段
宝鸡,狼人部落砂锅串串（虢镇店）,81248169,107.364544,34.361776,107.3596115,34.3630458,http://baoji.meituan.com/meishi/c17b4302/,http://www.meituan.com/meishi/81248169/,4.7,79条评论,人均￥32,陈仓区虢镇火车站和平街西虢文武学院对面广场内
宝鸡,川香火锅,41034273,107.37181,34.35684,107.3668625,34.3581019,http://baoji.meituan.com/meishi/c17b4302/,http://www.meituan.com/meishi/41034273/,4.5,1161条评论,人均￥20,陈仓区虢镇北环路冶峰驾校对面
宝鸡,小肥牛重庆火锅,60238424,107.372016,34.351323,107.3670685,34.3525874,http://baoji.meituan.com/meishi/c17b4302/,http://www.meituan.com/meishi/60238424/,4.2,217条评论,人均￥30,陈仓区虢镇冠森商业街F3号楼
宝鸡,丁老头老火锅串串遇上烧烤,182491323,107.332041,34.35622,107.3271929,34.3575507,http://baoji.meituan.com/meishi/c17b4302/,http://www.meituan.com/meishi/182491323/,4.5,19条评论,人均￥30,陈仓区陈仓大道
宝鸡,城门楼老火锅,184924520,107.332258,34.356134,107.3274093,34.3574643,http://baoji.meituan.com/meishi/c17b4302/,http://www.meituan.com/meishi/184924520/,3.6,16条评论,人均￥23,陈仓区陈仓大道
宝鸡,嘉州上上签牛肉串串（陈仓旗舰店）,165439665,107.339766,34.356323,107.3348967,34.3576389,http://baoji.meituan.com/meishi/c17b4302/,http://www.meituan.com/meishi/165439665/,3.9,13条评论,人均￥26,陈仓区虢镇李家崖公安局正对面05号
宝鸡,川都印象火锅,159159516,107.363351,34.362248,107.3584212,34.3635194,http://baoji.meituan.com/meishi/c17b4302/,http://www.meituan.com/meishi/159159516/,4.1,9条评论,人均￥35,陈仓区虢镇火车站综合集贸市场旁
宝鸡,鲜味源梭边鱼火锅,169317026,107.293366,34.360405,107.2886159,34.3617997,http://baoji.meituan.com/meishi/c17b4302/,http://www.meituan.com/meishi/169317026/,3.5,1条评论,人均￥40,陈仓区陈仓大道底县路楼西南角陕西信合隔壁
宝鸡,牛哥牛骨,152408543,107.391368,34.34871,107.3863897,34.3499561,http://baoji.meituan.com/meishi/c17b4302/,http://www.meituan.com/meishi/152408543/,4.5,82条评论,人均 -,陈仓区南环路紫竹苑商业街l号楼后楼第一层东（移动公司）
宝鸡,杨翔豆皮涮牛肚,159161946,107.386911,34.353039,107.381938,34.3542863,http://baoji.meituan.com/meishi/c17b4302/,http://www.meituan.com/meishi/159161946/,4.1,270条评论,人均￥38,陈仓区虢镇北大街金谷广场4楼
宝鸡,李想大虾（虢镇店）,159735789,107.3711,34.35099,107.3661544,34.3522558,http://baoji.meituan.com/meishi/c17b4302/,http://www.meituan.com/meishi/159735789/,3.7,1704条评论,人均￥45,陈仓区虢镇冠森商业街2号楼
宝鸡,理想大虾养生火锅（虢镇店）,94771806,107.371487,34.352752,107.3665405,34.3540164,http://baoji.meituan.com/meishi/c17b4302/,http://www.meituan.com/meishi/94771806/,3.7,1092条评论,人均￥39,陈仓区虢镇财富街一排2号
宝鸡,大当家砂锅串串（虢镇店）,94046122,107.377151,34.35283,107.3721936,34.3540872,http://baoji.meituan.com/meishi/c17b4302/,http://www.meituan.com/meishi/94046122/,4.2,276条评论,人均￥35,陈仓区虢镇步行街3号楼39号
宝鸡,德渔府（行政大道总店）,177230271,107.24499,34.360604,107.2402973,34.3620246,http://baoji.meituan.com/meishi/c17b4302/,http://www.meituan.com/meishi/177230271/,3.7,12条评论,人均￥45,陈仓区行政大道中国邮政储蓄银行对面
宝鸡,理想大虾（三迪店）,177926117,107.25599,34.358932,107.2512931,34.360355,http://baoji.meituan.com/meishi/c17b4302/,http://www.meituan.com/meishi/177926117/,3,45条评论,人均￥50,陈仓区金台区行政大道加州阳光小区151栋
宝鸡,川江坝子火锅（虢镇店）,113898027,107.377239,34.351419,107.3722816,34.3526768,http://baoji.meituan.com/meishi/c17b4302/,http://www.meituan.com/meishi/113898027/,3.6,195条评论,人均￥35,陈仓区虢镇步行街南门东侧15米
宝鸡,五味缘钢管厂小郡肝串串香（陈仓店）,164922827,107.370674,34.347668,107.3657295,34.3489361,http://baoji.meituan.com/meishi/c17b4302/,http://www.meituan.com/meishi/164922827/,4.1,181条评论,人均￥32,陈仓区陈仓中路育才大酒店南行200米
宝鸡,皇品火锅音乐餐厅,40636398,107.371962,34.352654,107.3670145,34.3539178,http://baoji.meituan.com/meishi/c17b4302/,http://www.meituan.com/meishi/40636398/,3.9,243条评论,人均￥43,陈仓区虢镇财富街后二排2号
宝鸡,狼少爷旋转火锅吧,187240872,107.329577,34.356999,107.3247356,34.358334,http://baoji.meituan.com/meishi/c17b4302/,http://www.meituan.com/meishi/187240872/,3.5,2条评论,人均￥30,陈仓区陈仓大道
宝鸡,马路边边市井火锅（三迪店）,189968170,107.242202,34.361465,107.2375095,34.3628841,http://baoji.meituan.com/meishi/c17b4302/,http://www.meituan.com/meishi/189968170/,3,1条评论,人均￥45,陈仓区行政大道小六汤包向东100米
宝鸡,木辛水水冰煮羊,188599676,107.241984,34.363904,107.2372913,34.3653217,http://baoji.meituan.com/meishi/c17b4302/,http://www.meituan.com/meishi/188599676/,3.5,3条评论,人均￥45,陈仓区行政中心行政东路三迪金融中心停车场
宝鸡,蜀味天串串火锅,169192199,107.385253,34.353748,107.3802823,34.3549963,http://baoji.meituan.com/meishi/c17b4302/,http://www.meituan.com/meishi/169192199/,5,95条评论,人均￥30,陈仓区虢镇工会巷鑫泰商场50米
宝鸡,巴蜀味道砂锅串串（第六分店）,182050749,107.339494,34.356212,107.3346254,34.3575285,http://baoji.meituan.com/meishi/c17b4302/,http://www.meituan.com/meishi/182050749/,暂无评,0条评论,人均￥25,陈仓区陈仓大道
宝鸡,重庆李记砂锅串串,165447190,107.377134,34.352595,107.3721767,34.3538524,http://baoji.meituan.com/meishi/c17b4302/,http://www.meituan.com/meishi/165447190/,3.9,9条评论,人均￥30,陈仓区虢镇步行街东排中段一楼
宝鸡,川城李记砂锅串串,170015256,107.37107,34.350434,107.3661245,34.3517002,http://baoji.meituan.com/meishi/c17b4302/,http://www.meituan.com/meishi/170015256/,3.5,2条评论,人均 -,陈仓区育才大酒店200米
宝鸡,小二砂锅串串,165621668,107.371922,34.357106,107.3669742,34.3583676,http://baoji.meituan.com/meishi/c17b4302/,http://www.meituan.com/meishi/165621668/,暂无评,0条评论,人均￥30,陈仓区陈仓中路冶峰驾校正对面
宝鸡,宝乐迪音乐餐厅,189381264,107.37756,34.353721,107.3726018,34.3549773,http://baoji.meituan.com/meishi/c17b4302/,http://www.meituan.com/meishi/189381264/,4.2,13条评论,人均￥45,陈仓区陈仓步行街1号楼（近清真寺）
宝鸡,辣堂客重庆老火锅（火炬路店）,182007875,107.137113,34.35652,107.1322989,34.3577852,http://baoji.meituan.com/meishi/c17b4300/,http://www.meituan.com/meishi/182007875/,5,137条评论,人均￥45,渭滨区火炬路6号创业大厦华致酒行2楼
宝鸡,椒麻鱼宴火锅（英达路总店）,157361332,107.133082,34.35602,107.1282648,34.3572806,http://baoji.meituan.com/meishi/c17b4300/,http://www.meituan.com/meishi/157361332/,5,817条评论,人均￥29,渭滨区清姜路沿线与英达路交汇处
宝鸡,佐冷馋·串串里,173398422,107.133181,34.356255,107.1283639,34.3575155,http://baoji.meituan.com/meishi/c17b4300/,http://www.meituan.com/meishi/173398422/,5,98条评论,人均￥42,渭滨区清姜路英达路1号
宝鸡,川胖子小郡肝火锅串串（公园南路店）,184800080,107.147345,34.351372,107.1425419,34.3526543,http://baoji.meituan.com/meishi/c17b4300/,http://www.meituan.com/meishi/184800080/,5,55条评论,人均￥45,渭滨区公园南路南洋国际商贸中心楼下
宝鸡,峰味片片鱼,74659593,107.13967,34.35096,107.1348587,34.3522314,http://baoji.meituan.com/meishi/c17b4300/,http://www.meituan.com/meishi/74659593/,4.8,283条评论,人均￥20,渭滨区峪泉路盛华园23栋1层7号
宝鸡,宽板凳老火锅,4288028,107.134996,34.361194,107.1301798,34.3624542,http://baoji.meituan.com/meishi/c17b4300/,http://www.meituan.com/meishi/4288028/,5,232条评论,人均￥43,渭滨区清姜路和太白路交叉路口
宝鸡,成都嘛啦啦冒菜,76128596,107.162335,34.345275,107.1575528,34.3465857,http://baoji.meituan.com/meishi/c17b4300/,http://www.meituan.com/meishi/76128596/,4.9,239条评论,人均￥12,渭滨区龙山路相家庄市场东门内侧
宝鸡,侠壹号正宗钢管厂小郡肝,179694579,107.144193,34.372416,107.1393846,34.3736827,http://baoji.meituan.com/meishi/c17b4300/,http://www.meituan.com/meishi/179694579/,4.9,110条评论,人均￥44,渭滨区建国路117号一层5号（粗粮王斜对面）
宝鸡,满兜福菜豆腐火锅（总店）,4043726,107.127407,34.360334,107.1225861,34.3615863,http://baoji.meituan.com/meishi/c17b4300/,http://www.meituan.com/meishi/4043726/,4.6,767条评论,人均￥40,渭滨区川陕路16号水岸丽园门面
宝鸡,蒸上鲜海鲜蒸汽蒸菜主题餐厅（新建路店）,72092515,107.140578,34.36918,107.1357661,34.3704433,http://baoji.meituan.com/meishi/c17b4300/,http://www.meituan.com/meishi/72092515/,3.8,897条评论,人均￥96,渭滨区新建路中段122号（新建路与红旗路十字东南角）
宝鸡,小蒙铜锅涮（六校店）,164057248,107.295096,34.336327,107.2903441,34.3377314,http://baoji.meituan.com/meishi/c17b4300/,http://www.meituan.com/meishi/164057248/,5,161条评论,人均￥35,渭滨区八鱼镇淡家村六组310国道宜家快捷酒店二楼
宝鸡,海神主题餐厅,91782609,107.135134,34.354559,107.1303185,34.3558227,http://baoji.meituan.com/meishi/c17b4300/,http://www.meituan.com/meishi/91782609/,5,109条评论,人均￥51,渭滨区创业路0917悠生活庭院A座四楼
宝鸡,杨记豆皮涮牛肚,50283867,107.11689,34.33868,107.1120684,34.339935,http://baoji.meituan.com/meishi/c17b4300/,http://www.meituan.com/meishi/50283867/,4.7,728条评论,人均￥30,渭滨区清姜路88号神农市场旁
宝鸡,番小茄骨汤串串香（巨一店）,107976397,107.15899,34.3691,107.1542009,34.3703926,http://baoji.meituan.com/meishi/c17b4300/,http://www.meituan.com/meishi/107976397/,4.5,426条评论,人均￥38,渭滨区巨一时代广场西边，长安银行隔壁
宝鸡,醉城都熊猫火锅（英达路店）,163249215,107.136934,34.354551,107.1321199,34.355817,http://baoji.meituan.com/meishi/c17b4300/,http://www.meituan.com/meishi/163249215/,3.7,177条评论,人均￥55,渭滨区英达路11号
宝鸡,秦石锅食府,2285736,107.133803,34.357231,107.1289862,34.3584918,http://baoji.meituan.com/meishi/c17b4300/,http://www.meituan.com/meishi/2285736/,4.5,376条评论,人均￥43,渭滨区胜利桥南英达路1号（近清姜坡）
宝鸡,御邸酸菜涮羊肉,40717892,107.13459,34.37239,107.1297726,34.3736438,http://baoji.meituan.com/meishi/c17b4300/,http://www.meituan.com/meishi/40717892/,3.7,200条评论,人均￥49,渭滨区广元路1号（盐业公司院内）
宝鸡,千家粗粮王（清姜路店）,90363720,107.132291,34.35636,107.1274733,34.3576195,http://baoji.meituan.com/meishi/c17b4300/,http://www.meituan.com/meishi/90363720/,3.8,8811条评论,人均￥45,渭滨区清姜路时代大厦2楼（火炬路）
宝鸡,重庆大舌尖老火锅,115933844,107.160296,34.336997,107.1555115,34.3383081,http://baoji.meituan.com/meishi/c17b4300/,http://www.meituan.com/meishi/115933844/,5,115条评论,人均￥35,渭滨区龙山路龙山雅居一区43路调度站南隔壁
宝鸡,月满大江（英达路店）,98251831,107.13483,34.35579,107.1300141,34.3570527,http://baoji.meituan.com/meishi/c17b4300/,http://www.meituan.com/meishi/98251831/,3.5,3182条评论,人均￥52,渭滨区英达路5号楼（海关斜对面）
宝鸡,小肥羊（宝鸡怡园店）,6580567,107.145685,34.371672,107.1408783,34.3729413,http://baoji.meituan.com/meishi/c17b4300/,http://www.meituan.com/meishi/6580567/,3.3,2506条评论,人均￥80,渭滨区经二路45号东方国际2层
宝鸡,刘一手火锅（火锅城店）,963855,107.14498,34.373824,107.1401723,34.3750911,http://baoji.meituan.com/meishi/c17b4300/,http://www.meituan.com/meishi/963855/,3.1,1562条评论,人均￥58,渭滨区汉中路火锅城内
宝鸡,青沐吃货,182644853,107.133334,34.369058,107.1285159,34.3703121,http://baoji.meituan.com/meishi/c17b4300/,http://www.meituan.com/meishi/182644853/,3.5,0条评论,人均￥42,渭滨区渭工路剑南红宝鸡总代理旁
宝鸡,成都老码头,4545923,107.135129,34.35515,107.1303134,34.3564134,http://baoji.meituan.com/meishi/c17b4300/,http://www.meituan.com/meishi/4545923/,3.4,715条评论,人均￥64,渭滨区英达路与创业路十字西南角
宝鸡,成都香辣蟹,963820,107.195121,34.350901,107.1903901,34.3522694,http://baoji.meituan.com/meishi/c17b4300/,http://www.meituan.com/meishi/963820/,3.4,758条评论,人均￥51,渭滨区滨河大道石鼓园（太阳市成都香辣蟹火锅店）
宝鸡,京宝源铜锅涮,186862705,107.187239,34.348092,107.1824963,34.3494476,http://baoji.meituan.com/meishi/c17b4300/,http://www.meituan.com/meishi/186862705/,4.5,16条评论,人均￥40,渭滨区滨河大道69号龙廷山水东侧
宝鸡,蜀国老味,157351855,107.299121,34.33679,107.2943601,34.3381884,http://baoji.meituan.com/meishi/c17b4300/,http://www.meituan.com/meishi/157351855/,4,48条评论,人均￥26,渭滨区310国道星梦奇缘私人影吧一楼
宝鸡,小张火锅（火炬路店）,185240621,107.138134,34.354458,107.133321,34.3557256,http://baoji.meituan.com/meishi/c17b4300/,http://www.meituan.com/meishi/185240621/,5,51条评论,人均￥31,渭滨区英达路13号
宝鸡,SULUDING冰煮羊,190593812,107.139801,34.358744,107.1349892,34.3600116,http://baoji.meituan.com/meishi/c17b4300/,http://www.meituan.com/meishi/190593812/,3.5,4条评论,人均￥43,渭滨区公园路中苑茗都一1楼2号付2号
宝鸡,纳塔斯冰煮羊（桥南店）,190390972,107.134937,34.3594,107.1301209,34.360661,http://baoji.meituan.com/meishi/c17b4300/,http://www.meituan.com/meishi/190390972/,4.4,9条评论,人均￥45,渭滨区宝鸡市渭滨区清姜路48号锦园大厦1层8号
宝鸡,贵客黔乡汇,158419432,107.199867,34.342052,107.1951437,34.3434329,http://baoji.meituan.com/meishi/c17b4300/,http://www.meituan.com/meishi/158419432/,3.9,14条评论,人均￥37,渭滨区高新开发区天玺台小区23号楼第10间
宝鸡,老成都牛杂火锅,90267249,107.117038,34.336185,107.1122166,34.3374413,http://baoji.meituan.com/meishi/c17b4300/,http://www.meituan.com/meishi/90267249/,5,58条评论,人均￥36,渭滨区清姜路神农市场神农新天地烧烤园向内20米南侧第3家商铺
宝鸡,上品羊烤肉铁锅炖,190847726,107.148997,34.349358,107.144196,34.3506439,http://baoji.meituan.com/meishi/c17b4300/,http://www.meituan.com/meishi/190847726/,3.5,2条评论,人均￥30,渭滨区石坝河街道18号院1号楼108号
宝鸡,巴蜀牛爺火锅,182346704,107.146511,34.350065,107.141707,34.3513467,http://baoji.meituan.com/meishi/c17b4300/,http://www.meituan.com/meishi/182346704/,3.5,6条评论,人均￥40,渭滨区公园南路公园华府
宝鸡,魚蛙相恋清油主题火锅,158649197,107.135033,34.35431,107.1302174,34.3555737,http://baoji.meituan.com/meishi/c17b4300/,http://www.meituan.com/meishi/158649197/,3.8,24条评论,人均￥39,渭滨区创业路7号
宝鸡,麻记钢管厂正宗小郡肝,186871336,107.161335,34.341363,107.1565516,34.3426738,http://baoji.meituan.com/meishi/c17b4300/,http://www.meituan.com/meishi/186871336/,3,1条评论,人均￥43,渭滨区龙山路一城江山别墅区
宝鸡,野兽花园火锅,179124249,107.147656,34.355722,107.1428529,34.3570026,http://baoji.meituan.com/meishi/c17b4300/,http://www.meituan.com/meishi/179124249/,4.1,163条评论,人均￥35,渭滨区渭滨区公园路206号
宝鸡,元宝饺子,99397639,107.157285,34.366664,107.1524937,34.3679549,http://baoji.meituan.com/meishi/c17b4300/,http://www.meituan.com/meishi/99397639/,4.1,7条评论,人均￥20,渭滨区金陵新村市场2区10号楼一楼门面妇幼保健院北门向东金陵幼儿园对面（天天福超市后面）
宝鸡,签之林砂锅串串,179468448,107.157559,34.368147,107.152768,34.3694376,http://baoji.meituan.com/meishi/c17b4300/,http://www.meituan.com/meishi/179468448/,暂无评,0条评论,人均￥34,渭滨区金陵步行街16号楼
宝鸡,宝鸡第一锨·火热朝天元素火锅,165606649,107.138836,34.35498,107.1340236,34.3562482,http://baoji.meituan.com/meishi/c17b4300/,http://www.meituan.com/meishi/165606649/,3.4,193条评论,人均￥39,渭滨区英达路15号（豪门酒店南行70米）
宝鸡,龙姐烫锅片片鱼,85361562,107.113762,34.333249,107.1089411,34.334505,http://baoji.meituan.com/meishi/c17b4300/,http://www.meituan.com/meishi/85361562/,4.8,130条评论,人均 -,渭滨区清姜路宝桥综合市场内北侧
宝鸡,酸菜涮牛羊肉,190460357,107.135045,34.354469,107.1302294,34.3557327,http://baoji.meituan.com/meishi/c17b4300/,http://www.meituan.com/meishi/190460357/,暂无评,0条评论,人均￥30,渭滨区创业路0917悠生活庭院内（文投影院对面一楼）
宝鸡,羌舙火锅,158679480,107.194544,34.35065,107.1898123,34.3520175,http://baoji.meituan.com/meishi/c17b4300/,http://www.meituan.com/meishi/158679480/,3.6,323条评论,人均￥62,渭滨区滨河大道88号石鼓太阳市
宝鸡,富生火锅豆花鱼,5201476,107.117,34.33842,107.1121784,34.3396752,http://baoji.meituan.com/meishi/c17b4300/,http://www.meituan.com/meishi/5201476/,4.6,665条评论,人均 -,渭滨区清姜路沿线神农新天地烧烤园（神农市场斜对面老成都牛杂火锅店内）
宝鸡,隔壁子火锅（渭工路店）,91454238,107.133663,34.369002,107.1288452,34.3702565,http://baoji.meituan.com/meishi/c17b4300/,http://www.meituan.com/meishi/91454238/,3.7,77条评论,人均￥37,渭滨区渭工路消防队向西50米
宝鸡,辣锅香干锅涮菜,159157947,107.104471,34.359423,107.0996517,34.3606637,http://baoji.meituan.com/meishi/c17b4300/,http://www.meituan.com/meishi/159157947/,3.5,3条评论,人均￥32,渭滨区姜谭路姜谭综合市场后北4号
宝鸡,野山菌养生汤锅烧烤,157828971,107.118092,34.336687,107.1132706,34.3379437,http://baoji.meituan.com/meishi/c17b4300/,http://www.meituan.com/meishi/157828971/,3.5,3条评论,人均￥64,渭滨区清姜路神农新天地烧烤城8号楼
宝鸡,周二哥豆皮涮牛肚,190647825,107.139841,34.348215,107.1350301,34.349488,http://baoji.meituan.com/meishi/c17b4300/,http://www.meituan.com/meishi/190647825/,暂无评,0条评论,人均￥35,渭滨区峪甘路峪泉村二组56号
宝鸡,邓嘎嘎啤酒鸭,188090180,107.145689,34.373847,107.1408821,34.3751152,http://baoji.meituan.com/meishi/c17b4300/,http://www.meituan.com/meishi/188090180/,暂无评,0条评论,人均￥44,渭滨区汉中路中山东路9号
宝鸡,小城调调成都邻家火锅店,179706352,107.159834,34.371621,107.155046,34.3729137,http://baoji.meituan.com/meishi/c17b4300/,http://www.meituan.com/meishi/179706352/,4.1,10条评论,人均￥40,渭滨区金陵街道办事处机厂街社区货场路4号楼一楼2号门面房
宝鸡,八一鸡公煲,104728930,107.140684,34.354944,107.1358733,34.3562148,http://baoji.meituan.com/meishi/c17b4300/,http://www.meituan.com/meishi/104728930/,4.4,35条评论,人均￥18,渭滨区高新开发区火炬路中段26号
宝鸡,重庆巫山纸上烤鱼（六校分店）,157231041,107.293435,34.33642,107.2886867,34.3378266,http://baoji.meituan.com/meishi/c17b4300/,http://www.meituan.com/meishi/157231041/,4.1,9条评论,人均 -,渭滨区310国道与高新十三路十字路口南向西20米（五菱宏光4S对面）
宝鸡,数签儿成都传统小串串,184937020,107.136369,34.356335,107.1315543,34.3575994,http://baoji.meituan.com/meishi/c17b4300/,http://www.meituan.com/meishi/184937020/,3.5,5条评论,人均￥33,渭滨区创业路1号
宝鸡,让签签飞小郡肝串串香（经一路旗舰店）,188452742,107.14214,34.373232,107.1373293,34.3744953,http://baoji.meituan.com/meishi/c17b4300/,http://www.meituan.com/meishi/188452742/,4.8,25条评论,人均￥40,渭滨区经一路西口，那里国际一楼
宝鸡,百草园火锅店,4209206,107.146346,34.371552,107.1415401,34.3728224,http://baoji.meituan.com/meishi/c17b4300/,http://www.meituan.com/meishi/4209206/,3.9,3025条评论,人均￥35,渭滨区经二路45号怡园宾馆3层
宝鸡,鲜尚轩斑鱼庄,6880880,107.137582,34.354277,107.1327685,34.355544,http://baoji.meituan.com/meishi/c17b4300/,http://www.meituan.com/meishi/6880880/,3.7,3512条评论,人均￥60,渭滨区英达路13号
宝鸡,友和豆皮涮牛肚（均利广场店）,2558210,107.152347,34.367055,107.1475489,34.3683373,http://baoji.meituan.com/meishi/c17b4300/,http://www.meituan.com/meishi/2558210/,3.9,1375条评论,人均￥46,渭滨区均利广场南门
宝鸡,川遇鸡公虾婆,188579256,107.136737,34.354152,107.1319228,34.3554179,http://baoji.meituan.com/meishi/c17b4300/,http://www.meituan.com/meishi/188579256/,5,55条评论,人均￥31,渭滨区英达路18号（原麻辣空间）醉成都正对面
宝鸡,三不做牛油火锅,179514969,107.13594,34.355796,107.131125,34.3570601,http://baoji.meituan.com/meishi/c17b4300/,http://www.meituan.com/meishi/179514969/,3.7,17条评论,人均￥64,渭滨区英达路创业路1号
宝鸡,狼人部落砂锅串串（石坝河店）,163014881,107.14964,34.349192,107.1448399,34.350479,http://baoji.meituan.com/meishi/c17b4300/,http://www.meituan.com/meishi/163014881/,4.3,34条评论,人均￥25,渭滨区峪石路教堂对面
宝鸡,盗汗王（建国路店）,963775,107.145309,34.373997,107.1405017,34.3752645,http://baoji.meituan.com/meishi/c17b4300/,http://www.meituan.com/meishi/963775/,3.4,230条评论,人均￥58,渭滨区建国路解放新村一栋32号大利广场火锅城内
宝鸡,狼人部落砂锅串串（欧洲城店）,163137393,107.128515,34.360508,107.1236947,34.3617613,http://baoji.meituan.com/meishi/c17b4300/,http://www.meituan.com/meishi/163137393/,4.2,12条评论,人均￥28,渭滨区川陕路24号凯跃欧洲城南门对面（中国人寿隔壁）
宝鸡,五味缘钢管厂小郡肝串串香（英达路店）,164054426,107.136069,34.354485,107.1312542,34.3557499,http://baoji.meituan.com/meishi/c17b4300/,http://www.meituan.com/meishi/164054426/,3.7,232条评论,人均￥44,渭滨区英达路民族饭庄正对面
宝鸡,彪阿肆 巫山纸包鱼,164359281,107.144523,34.350211,107.1397167,34.3514897,http://baoji.meituan.com/meishi/c17b4300/,http://www.meituan.com/meishi/164359281/,3,59条评论,人均￥37,渭滨区峪石路玉泉花园北区南门（爱琴海幼儿园对面）
宝鸡,昕玥重庆纸包鱼,157154809,107.13103,34.37112,107.1262102,34.3723704,http://baoji.meituan.com/meishi/c17b4300/,http://www.meituan.com/meishi/157154809/,3.5,3条评论,人均￥35,渭滨区新建路天上人间都市花园斜对面
宝鸡,小郡肝串串香（巨一店）,164746821,107.159606,34.367237,107.154818,34.3685316,http://baoji.meituan.com/meishi/c17b4300/,http://www.meituan.com/meishi/164746821/,3.5,174条评论,人均￥32,渭滨区金渭路金陵桥西巨一时代广场
宝鸡,理想大虾（英达路店）,118594601,107.13519,34.35477,107.1303745,34.3560337,http://baoji.meituan.com/meishi/c17b4300/,http://www.meituan.com/meishi/118594601/,3.3,1521条评论,人均￥42,渭滨区英达路0917商业区（七号餐厅隔壁）
宝鸡,豪景花园酒店餐厅,68374961,107.126903,34.348748,107.1220828,34.3500057,http://baoji.meituan.com/meishi/c17b4300/,http://www.meituan.com/meishi/68374961/,3.5,0条评论,人均￥49,渭滨区清姜路70号（宝成游泳馆旁）
宝鸡,妙味冒菜（党家村店）,5153539,107.16978,34.346306,107.1650093,34.3476298,http://baoji.meituan.com/meishi/c17b4300/,http://www.meituan.com/meishi/5153539/,3.7,322条评论,人均￥14,渭滨区宝光路党家村市场东排第二家
宝鸡,高记干锅,159914492,107.13511,34.354952,107.1302944,34.3562155,http://baoji.meituan.com/meishi/c17b4300/,http://www.meituan.com/meishi/159914492/,3.4,482条评论,人均￥45,渭滨区英达路老码头隔壁
宝鸡,川胖子钢管厂小郡肝火锅串串（创业路店）,164606483,107.136212,34.355898,107.1313972,34.3571624,http://baoji.meituan.com/meishi/c17b4300/,http://www.meituan.com/meishi/164606483/,4,34条评论,人均￥59,渭滨区创业路1号（火炬路与创业路交口南行100米路东）
宝鸡,胜家音乐烤吧,159533001,107.137995,34.372573,107.1331804,34.373831,http://baoji.meituan.com/meishi/c17b4300/,http://www.meituan.com/meishi/159533001/,3.5,6条评论,人均￥45,渭滨区经二路96号（汽车西站对面）
宝鸡,秦宝肥牛世界（火炬路店）,963884,107.140346,34.355613,107.135535,34.356883,http://baoji.meituan.com/meishi/c17b4300/,http://www.meituan.com/meishi/963884/,3.1,2065条评论,人均￥52,渭滨区火炬路29号
宝鸡,迪派音乐餐厅,2285694,107.141431,34.372158,107.1366197,34.3734209,http://baoji.meituan.com/meishi/c17b4300/,http://www.meituan.com/meishi/2285694/,3,1154条评论,人均￥43,渭滨区经二路93号宝商对面万达影城三楼
宝鸡,丰串串老火锅,159384733,107.136883,34.354947,107.1320689,34.3562127,http://baoji.meituan.com/meishi/c17b4300/,http://www.meituan.com/meishi/159384733/,3.6,1544条评论,人均￥40,渭滨区英达路11号
宝鸡,欢妹儿片片鱼,178858387,107.114986,34.345736,107.1101639,34.3469865,http://baoji.meituan.com/meishi/c17b4300/,http://www.meituan.com/meishi/178858387/,暂无评,0条评论,人均 -,渭滨区川陕路姜河二区烧烤广场
宝鸡,众口香自助火锅,67889304,107.29408,34.33623,107.2893303,34.3376358,http://baoji.meituan.com/meishi/c17b4300/,http://www.meituan.com/meishi/67889304/,3,1319条评论,人均￥29,渭滨区文兴路南口宝鸡职业技术学院南门西200米
宝鸡,王婆大虾时尚火锅,119315415,107.292902,34.336368,107.2881548,34.3377754,http://baoji.meituan.com/meishi/c17b4300/,http://www.meituan.com/meishi/119315415/,3.5,391条评论,人均￥30,渭滨区高新职业技术学院南门西南100米（昊星酒店）
宝鸡,陇州老暖锅,186802512,107.135233,34.354303,107.1304176,34.355567,http://baoji.meituan.com/meishi/c17b4300/,http://www.meituan.com/meishi/186802512/,3.5,4条评论,人均￥34,渭滨区桥南创业南路停车场往南30米（御园华庭对面）
宝鸡,昊星酒店夜市.自助火锅,184717829,107.292115,34.336314,107.2873694,34.3377224,http://baoji.meituan.com/meishi/c17b4300/,http://www.meituan.com/meishi/184717829/,3,4条评论,人均 -,渭滨区渭滨大道
宝鸡,小龙坎老火锅（英达路店）,96000359,107.134707,34.355816,107.129891,34.3570786,http://baoji.meituan.com/meishi/c17b4300/,http://www.meituan.com/meishi/96000359/,3,1885条评论,人均￥56,渭滨区英达路西段海关大楼斜对面
宝鸡,千家粗粮王（经一路店）,74944146,107.144685,34.372671,107.1398771,34.3739383,http://baoji.meituan.com/meishi/c17b4300/,http://www.meituan.com/meishi/74944146/,4,13153条评论,人均￥48,渭滨区经一路73号（宝陵大酒店旁）
宝鸡,番小茄火锅串串香（火炬路）,169309288,107.149325,34.351614,107.1445243,34.3528993,http://baoji.meituan.com/meishi/c17b4300/,http://www.meituan.com/meishi/169309288/,3.5,5条评论,人均￥45,渭滨区火炬路宝鸡体育场南门西行200米
宝鸡,麻一口火锅串串（巨一广场店）,178776018,107.15996,34.367852,107.1551725,34.3691469,http://baoji.meituan.com/meishi/c17b4300/,http://www.meituan.com/meishi/178776018/,5,48条评论,人均￥39,渭滨区经二路与经渭路交叉口巨一广场一楼
宝鸡,味之韵自助火锅,108437081,107.140005,34.350687,107.135194,34.351959,http://baoji.meituan.com/meishi/c17b4300/,http://www.meituan.com/meishi/108437081/,5,139条评论,人均 -,渭滨区峪泉路盛花园小区东门南侧
宝鸡,程大个,187871178,107.143314,34.370824,107.1385048,34.3720903,http://baoji.meituan.com/meishi/c17b4300/,http://www.meituan.com/meishi/187871178/,暂无评,0条评论,人均￥33,渭滨区新民路经二路134号
宝鸡,竹园村火锅（银泰城店）,162285006,107.195142,34.359979,107.1904104,34.3613428,http://baoji.meituan.com/meishi/c17b4301/,http://www.meituan.com/meishi/162285006/,5,584条评论,人均￥57,金台区金台大道银泰城4楼
宝鸡,煌品三汁焖锅,187233615,107.184085,34.361605,107.1793362,34.3629479,http://baoji.meituan.com/meishi/c17b4301/,http://www.meituan.com/meishi/187233615/,4.7,66条评论,人均￥27,金台区同盟路1号
宝鸡,辣尚丰,179633271,107.177005,34.357955,107.172245,34.3592865,http://baoji.meituan.com/meishi/c17b4301/,http://www.meituan.com/meishi/179633271/,5,106条评论,人均￥38,金台区陈仓园一路金九商务
宝鸡,食尚街·一品粥火锅,169457231,107.236321,34.366481,107.2316276,34.3678942,http://baoji.meituan.com/meishi/c17b4301/,http://www.meituan.com/meishi/169457231/,4.9,217条评论,人均￥55,金台区陈仓大道盛世广场食尚街二期内（行政中心北侧）
宝鸡,亮健容天羊蝎子火锅（盛世广场店）,177809279,107.234832,34.365596,107.2301383,34.3670086,http://baoji.meituan.com/meishi/c17b4301/,http://www.meituan.com/meishi/177809279/,5,64条评论,人均￥30,金台区陈仓大道行政中心盛世广场二期ume电影院楼下
宝鸡,食尚街·云南特色火锅,169446415,107.237493,34.366749,107.2327998,34.3681628,http://baoji.meituan.com/meishi/c17b4301/,http://www.meituan.com/meishi/169446415/,5,228条评论,人均￥56,金台区陈仓大道盛世广场食尚街二期内（行政中心北侧）
宝鸡,三江鱼府,184052372,107.183214,34.361745,107.1784638,34.3630862,http://baoji.meituan.com/meishi/c17b4301/,http://www.meituan.com/meishi/184052372/,5,52条评论,人均￥40,金台区第五大道同盟路1号
宝鸡,食尚街·臻火锅,101431922,107.234857,34.365586,107.2301633,34.3669987,http://baoji.meituan.com/meishi/c17b4301/,http://www.meituan.com/meishi/101431922/,4.3,2300条评论,人均￥39,金台区行政中心盛世广场食尚TOP街南侧
宝鸡,食尚街·轻食私房火锅,169643832,107.23472,34.365758,107.2300262,34.3671705,http://baoji.meituan.com/meishi/c17b4301/,http://www.meituan.com/meishi/169643832/,4.7,402条评论,人均￥40,金台区陈仓大道盛世广场食尚街二期内（行政中心北侧）
宝鸡,蜀大侠火锅,162824753,107.181635,34.361998,107.1768822,34.3633362,http://baoji.meituan.com/meishi/c17b4301/,http://www.meituan.com/meishi/162824753/,4.3,819条评论,人均￥82,金台区联盟路第五大道
宝鸡,伊瑞泽清真酸菜涮羊肉,164194136,107.22755,34.36621,107.2228531,34.3676162,http://baoji.meituan.com/meishi/c17b4301/,http://www.meituan.com/meishi/164194136/,5,315条评论,人均￥45,金台区宏文路18号（盛世花园门面房）
宝鸡,老饕,164057938,107.184376,34.357394,107.179628,34.3587396,http://baoji.meituan.com/meishi/c17b4301/,http://www.meituan.com/meishi/164057938/,3.9,1021条评论,人均￥71,金台区联盟路轩苑小区北门向北30米
宝鸡,鼎宴主题火锅（银泰新天地店）,168996511,107.193932,34.361278,107.1891985,34.362639,http://baoji.meituan.com/meishi/c17b4301/,http://www.meituan.com/meishi/168996511/,4.3,73条评论,人均￥45,金台区金台大道银泰城对面新天地二楼
宝鸡,花田煮·臻牛,102954223,107.237644,34.367091,107.2329508,34.3685047,http://baoji.meituan.com/meishi/c17b4301/,http://www.meituan.com/meishi/102954223/,3.9,1956条评论,人均￥45,金台区陈仓大道盛世广场食尚街旁
宝鸡,黄记煌三汁焖锅（银泰店）,161887218,107.195262,34.35997,107.1905306,34.361334,http://baoji.meituan.com/meishi/c17b4301/,http://www.meituan.com/meishi/161887218/,3.6,348条评论,人均￥63,金台区金台大道银泰城四楼
宝鸡,食尚街·李记清真酸菜涮牛羊肉,108723126,107.234846,34.365604,107.2301523,34.3670166,http://baoji.meituan.com/meishi/c17b4301/,http://www.meituan.com/meishi/108723126/,3.6,1365条评论,人均￥39,金台区行政中心盛世广场食尚TOP街南侧
宝鸡,重庆老版火锅,163328866,107.206113,34.362751,107.2013963,34.3641316,http://baoji.meituan.com/meishi/c17b4301/,http://www.meituan.com/meishi/163328866/,4.3,860条评论,人均￥65,金台区大庆路南泰森生活广场A座二楼
宝鸡,食尚街·重庆老家耗儿鱼,102677295,107.234851,34.365591,107.2301573,34.3670036,http://baoji.meituan.com/meishi/c17b4301/,http://www.meituan.com/meishi/102677295/,4,543条评论,人均￥50,金台区行政中心盛世广场食尚TOP街
宝鸡,签游记.火锅串串（宏文路总店）,179304044,107.225993,34.36598,107.2212952,34.3673848,http://baoji.meituan.com/meishi/c17b4301/,http://www.meituan.com/meishi/179304044/,4.7,49条评论,人均￥45,金台区宝鸡市金台区宏文路盛世花园底商4-1
宝鸡,宝鸡市壹方清真坊火锅,174928087,107.1137,34.372757,107.1088759,34.373993,http://baoji.meituan.com/meishi/c17b4301/,http://www.meituan.com/meishi/174928087/,3,0条评论,人均￥40,金台区新福路6号金水湾3号楼
宝鸡,焖锅部落,165092344,107.206044,34.36262,107.2013272,34.3640005,http://baoji.meituan.com/meishi/c17b4301/,http://www.meituan.com/meishi/165092344/,5,58条评论,人均￥45,金台区大庆路泰森生活广场
宝鸡,清真鱼之鲜火锅,4103496,107.135863,34.377345,107.1310462,34.3785978,http://baoji.meituan.com/meishi/c17b4301/,http://www.meituan.com/meishi/4103496/,3.5,4条评论,人均￥40,金台区中山路和市府巷南口向东20米
宝鸡,骉骉老火锅,162707157,107.185635,34.356866,107.180889,34.3582142,http://baoji.meituan.com/meishi/c17b4301/,http://www.meituan.com/meishi/162707157/,4.2,48条评论,人均￥41,金台区黄家大道中段轩苑小区北门东100米
宝鸡,重庆石锅辣鲶鱼,165375783,107.158352,34.378658,107.1535612,34.3799444,http://baoji.meituan.com/meishi/c17b4301/,http://www.meituan.com/meishi/165375783/,3.5,5条评论,人均￥30,金台区东仁新城西北门一排
宝鸡,鱼蛙相恋清油火锅（陈仓园店）,169289829,107.184115,34.358652,107.1793664,34.3599965,http://baoji.meituan.com/meishi/c17b4301/,http://www.meituan.com/meishi/169289829/,3.9,43条评论,人均￥50,金台区金台大道轩苑小区正对面步行街内
宝鸡,小王烧烤涮羊肉（轩苑店）,169121085,107.116974,34.374634,107.1121495,34.3758707,http://baoji.meituan.com/meishi/c17b4301/,http://www.meituan.com/meishi/169121085/,3,0条评论,人均￥45,金台区新福路众鑫生活超市北侧
宝鸡,功夫牛侠潮汕牛肉锅,164999826,107.169664,34.364221,107.1648917,34.3655355,http://baoji.meituan.com/meishi/c17b4301/,http://www.meituan.com/meishi/164999826/,4.1,461条评论,人均￥45,金台区东风路5号新里城4楼
宝鸡,理想大虾（第五大道店）,50379979,107.182144,34.361878,107.177392,34.3632172,http://baoji.meituan.com/meishi/c17b4301/,http://www.meituan.com/meishi/50379979/,3.7,3693条评论,人均￥41,金台区联盟路18号（第五大道中段川坝子老食堂斜对面）
宝鸡,木鱼石美蛙鱼,178768908,107.243812,34.361134,107.2391194,34.3625539,http://baoji.meituan.com/meishi/c17b4301/,http://www.meituan.com/meishi/178768908/,3.5,5条评论,人均￥40,金台区行政大道8号
宝鸡,小王烧烤涮羊肉·清真,150774266,107.181821,34.362141,107.1770685,34.3634794,http://baoji.meituan.com/meishi/c17b4301/,http://www.meituan.com/meishi/150774266/,3,2条评论,人均￥48,金台区同盟路和第五大道交叉口西行200米路北
宝鸡,椒麻鱼宴重庆老火锅,189837260,107.225724,34.365368,107.2210261,34.3667728,http://baoji.meituan.com/meishi/c17b4301/,http://www.meituan.com/meishi/189837260/,4.3,10条评论,人均￥45,金台区宏文路虢十路15号代家湾小学向东200米路南
宝鸡,唐记煌火锅串串店,174904901,107.194078,34.360456,107.1893448,34.3618177,http://baoji.meituan.com/meishi/c17b4301/,http://www.meituan.com/meishi/174904901/,4.3,127条评论,人均￥37,金台区金台区金台大道
宝鸡,谭鲜生,169247492,107.19389,34.36103,107.1891565,34.3623911,http://baoji.meituan.com/meishi/c17b4301/,http://www.meituan.com/meishi/169247492/,4.2,14条评论,人均￥45,金台区金台大道银泰对面东岭新天地二楼
宝鸡,任你行鸭爪爪特色火锅,189252224,107.242757,34.360706,107.2380646,34.3621257,http://baoji.meituan.com/meishi/c17b4301/,http://www.meituan.com/meishi/189252224/,4.1,12条评论,人均￥36,金台区行政大道香港贵宾楼东-2号
宝鸡,清真老北京涮羊肉,41948227,107.13541,34.37833,107.1305928,34.3795817,http://baoji.meituan.com/meishi/c17b4301/,http://www.meituan.com/meishi/41948227/,3,5条评论,人均￥45,金台区府巷内20米家合宾馆1楼
宝鸡,木辛水水冰煮羊（金台店）,187884694,107.182326,34.357751,107.1775746,34.3590926,http://baoji.meituan.com/meishi/c17b4301/,http://www.meituan.com/meishi/187884694/,4,13条评论,人均￥55,金台区黄家大道
宝鸡,老船头火锅,177626399,107.243954,34.360584,107.2392615,34.3620043,http://baoji.meituan.com/meishi/c17b4301/,http://www.meituan.com/meishi/177626399/,3,4条评论,人均￥43,金台区行政大道8号盛隆购物中心对面
宝鸡,纳塔斯冰煮羊（陈仓园店）,188878426,107.178395,34.357736,107.1736373,34.3590703,http://baoji.meituan.com/meishi/c17b4301/,http://www.meituan.com/meishi/188878426/,4,3条评论,人均￥64,金台区联盟路6号陈仓一路实验幼儿园东侧路口
宝鸡,胖子鱼川派鲜鱼火锅,177861167,107.117044,34.374905,107.1122195,34.3761416,http://baoji.meituan.com/meishi/c17b4301/,http://www.meituan.com/meishi/177861167/,3.9,12条评论,人均￥40,金台区新福南路轩苑盛世二期3幢20号门面房乐活58街区最东头
宝鸡,疯子串串老火锅,188782456,107.116894,34.374248,107.1120695,34.3754849,http://baoji.meituan.com/meishi/c17b4301/,http://www.meituan.com/meishi/188782456/,3,10条评论,人均￥35,金台区新福路众鑫生活超市二楼
宝鸡,重庆石锅辣鲶鱼（豪城分店）,41972310,107.108792,34.376219,107.1039691,34.3774515,http://baoji.meituan.com/meishi/c17b4301/,http://www.meituan.com/meishi/41972310/,4.1,18条评论,人均￥30,金台区新福路58号豪城天下C区10栋底商
宝鸡,侨巴儿火山鱼馆,175485214,107.116012,34.377461,107.1111873,34.3786957,http://baoji.meituan.com/meishi/c17b4301/,http://www.meituan.com/meishi/175485214/,4.1,20条评论,人均￥40,金台区新福北路百翠园A区北门东行50米
宝鸡,泥巴小院,189465161,107.116944,34.374279,107.1121195,34.3755159,http://baoji.meituan.com/meishi/c17b4301/,http://www.meituan.com/meishi/189465161/,3,2条评论,人均￥30,金台区新福路
宝鸡,嘉州上上签牛肉串串,165042549,107.204807,34.368233,107.2000882,34.3696087,http://baoji.meituan.com/meishi/c17b4301/,http://www.meituan.com/meishi/165042549/,4.4,26条评论,人均￥35,金台区宏文路111号
宝鸡,蜀香火锅串串,188469816,107.255615,34.359478,107.2509183,34.3609008,http://baoji.meituan.com/meishi/c17b4301/,http://www.meituan.com/meishi/188469816/,暂无评,1条评论,人均￥40,金台区行政大道东段光明商业A座1层24号
宝鸡,食尚街·武汉谢师傅牛骨头,188854312,107.239671,34.366502,107.2349781,34.3679172,http://baoji.meituan.com/meishi/c17b4301/,http://www.meituan.com/meishi/188854312/,4.2,19条评论,人均￥47,金台区盛世广场食尚街二期内
宝鸡,子非鱼,169260202,107.181579,34.361777,107.1768261,34.3631152,http://baoji.meituan.com/meishi/c17b4301/,http://www.meituan.com/meishi/169260202/,4.3,20条评论,人均￥43,金台区第五大道中段
宝鸡,7根签子串式火锅,182017496,107.184095,34.361576,107.1793462,34.362919,http://baoji.meituan.com/meishi/c17b4301/,http://www.meituan.com/meishi/182017496/,3.8,28条评论,人均￥38,金台区同盟路中段新街口商业楼E座1-1-3
宝鸡,串门姑娘心串串（百翠园店）,182458631,107.115905,34.377539,107.1110803,34.3787736,http://baoji.meituan.com/meishi/c17b4301/,http://www.meituan.com/meishi/182458631/,5,16条评论,人均￥33,金台区新福北路
宝鸡,鲜聚齐羊蝎子火锅铜锅涮肉,164566595,107.191514,34.363669,107.1867767,34.3650245,http://baoji.meituan.com/meishi/c17b4301/,http://www.meituan.com/meishi/164566595/,3.6,31条评论,人均 -,金台区东风路33号付21号（中粮国际对面）
宝鸡,五味缘钢管厂小郡肝串串香（大庆路店）,174202680,107.202363,34.363918,107.1976413,34.365292,http://baoji.meituan.com/meishi/c17b4301/,http://www.meituan.com/meishi/174202680/,3,5条评论,人均￥45,金台区大庆路瑞丰酒店西侧向北50米
宝鸡,撸串铺子,180074500,107.247286,34.360385,107.2425929,34.3618064,http://baoji.meituan.com/meishi/c17b4301/,http://www.meituan.com/meishi/180074500/,4.4,4条评论,人均￥27,金台区行政大道
宝鸡,超时代鱼火锅（银泰城店）,160073690,107.195437,34.360578,107.1907058,34.361942,http://baoji.meituan.com/meishi/c17b4301/,http://www.meituan.com/meishi/160073690/,4,79条评论,人均￥48,金台区金台大道银泰城4楼
宝鸡,签游记·火锅串串（三迪店）,179660884,107.2444,34.360464,107.2397074,34.3618845,http://baoji.meituan.com/meishi/c17b4301/,http://www.meituan.com/meishi/179660884/,4,18条评论,人均￥50,金台区行政大道66号盛隆购物中心对面
宝鸡,重庆川味王麻辣烫,164655932,107.206626,34.362172,107.20191,34.3635537,http://baoji.meituan.com/meishi/c17b4301/,http://www.meituan.com/meishi/164655932/,3.5,0条评论,人均￥15,金台区大庆路路南103号泰森生活广场B区109号
宝鸡,成都屋头串串香（宏文路店）,164530108,107.22544,34.36542,107.2207419,34.3668245,http://baoji.meituan.com/meishi/c17b4301/,http://www.meituan.com/meishi/164530108/,4,12条评论,人均￥40,金台区宏文路骏景蓝亭底商（代家湾小学向东200米路南）
宝鸡,呷哺呷哺（宝鸡银泰店）,161875329,107.194979,34.360086,107.1902472,34.3614495,http://baoji.meituan.com/meishi/c17b4301/,http://www.meituan.com/meishi/161875329/,3.4,663条评论,人均￥52,金台区宝鸡金台大道银泰城四层
宝鸡,二当家砂锅串串（东仁新城店）,160461905,107.157796,34.377452,107.1530045,34.378738,http://baoji.meituan.com/meishi/c17b4301/,http://www.meituan.com/meishi/160461905/,4.1,201条评论,人均￥30,金台区瓦厂街东仁新城A区5号楼
宝鸡,成都屋头串串香（斗鸡店）,165047484,107.205498,34.36785,107.2007801,34.369227,http://baoji.meituan.com/meishi/c17b4301/,http://www.meituan.com/meishi/165047484/,3.5,5条评论,人均￥39,金台区宏文路荣坊居高层一楼
宝鸡,萌串串,177648550,107.174111,34.358005,107.1693463,34.3593311,http://baoji.meituan.com/meishi/c17b4301/,http://www.meituan.com/meishi/177648550/,3.5,2条评论,人均￥45,金台区陈仓园一路佳美家正后门
宝鸡,大牛合潮汕鲜牛肉火锅,190648971,107.195483,34.360132,107.1907519,34.3614963,http://baoji.meituan.com/meishi/c17b4301/,http://www.meituan.com/meishi/190648971/,3.6,918条评论,人均￥75,金台区金台大道20号
宝鸡,壹号码头串串,177398093,107.231855,34.366115,107.2271602,34.3675251,http://baoji.meituan.com/meishi/c17b4301/,http://www.meituan.com/meishi/177398093/,暂无评,0条评论,人均￥35,金台区大庆路1号蟠龙国际A1层6号（戴家湾小区炫宇超市对面）
宝鸡,五味缘钢管厂小郡肝串串香（东仁新城C区店）,177617516,107.159468,34.378331,107.1546789,34.3796195,http://baoji.meituan.com/meishi/c17b4301/,http://www.meituan.com/meishi/177617516/,3.9,9条评论,人均￥33,金台区沿河街东仁新城C区底商
宝鸡,槐店王婆大虾（银泰城店）,161820594,107.195228,34.360456,107.1904965,34.3618197,http://baoji.meituan.com/meishi/c17b4301/,http://www.meituan.com/meishi/161820594/,3.7,992条评论,人均￥48,金台区金台大道银泰城四楼
宝鸡,川香豆皮涮牛肚,4129235,107.10577,34.37644,107.1009486,34.3776719,http://baoji.meituan.com/meishi/c17b4301/,http://www.meituan.com/meishi/4129235/,3.5,1条评论,人均 -,金台区新福园豪城天下广场对面豪城天下a区18号楼1楼5号商铺（同和堂大药房）
宝鸡,签游记.火锅串串（新福园店）,179540626,107.116935,34.374212,107.1121105,34.3754489,http://baoji.meituan.com/meishi/c17b4301/,http://www.meituan.com/meishi/179540626/,4.2,18条评论,人均￥38,金台区新福园众鑫超市向北50米
宝鸡,新渝鑫干锅辣鸭头（第五大道店）,189322721,107.181023,34.362437,107.1762692,34.3637738,http://baoji.meituan.com/meishi/c17b4301/,http://www.meituan.com/meishi/189322721/,4.5,11条评论,人均￥45,金台区第五大道联盟路中段18号
宝鸡,五味缘钢管厂小郡肝串串香（陈仓园店）,169146869,107.174184,34.357988,107.1694194,34.3593142,http://baoji.meituan.com/meishi/c17b4301/,http://www.meituan.com/meishi/169146869/,3.3,24条评论,人均￥45,金台区陈仓园一路家美佳后面
宝鸡,钢管厂五区小郡肝串串（第五大道店）,177922751,107.182236,34.36182,107.1774842,34.3631594,http://baoji.meituan.com/meishi/c17b4301/,http://www.meituan.com/meishi/177922751/,3.3,19条评论,人均￥45,金台区联盟第五大道第五大道C2西商铺
宝鸡,老郑家豆皮涮牛肚,40734365,107.108746,34.376213,107.1039231,34.3774455,http://baoji.meituan.com/meishi/c17b4301/,http://www.meituan.com/meishi/40734365/,4,12条评论,人均￥35,金台区新福路15号豪城天下C区10幢1层16号
宝鸡,重庆陈老五火锅,4441274,107.209198,34.363668,107.204485,34.3650528,http://baoji.meituan.com/meishi/c17b4301/,http://www.meituan.com/meishi/4441274/,4.1,451条评论,人均￥47,金台区大庆路50号（金台市民中心向东300米东润枫景1-1-1）
宝鸡,东岭皇冠假日酒店知味火锅餐厅,169030073,107.197082,34.360488,107.1923532,34.3618549,http://baoji.meituan.com/meishi/c17b4301/,http://www.meituan.com/meishi/169030073/,4.3,20条评论,人均￥65,金台区金台大道
宝鸡,重庆巫山纸包鱼,179175927,107.157693,34.377732,107.1529014,34.3790177,http://baoji.meituan.com/meishi/c17b4301/,http://www.meituan.com/meishi/179175927/,4.2,8条评论,人均￥24,金台区永兴巷东仁新城B区南门西行30米
宝鸡,菜多多自助火锅,6569384,107.105897,34.376459,107.1010755,34.3776909,http://baoji.meituan.com/meishi/c17b4301/,http://www.meituan.com/meishi/6569384/,3.2,796条评论,人均￥33,金台区新福路中段16号院（豪城天下A区，豪城广场）
宝鸡,芙蓉树下冒菜,157738671,107.178405,34.358168,107.1736473,34.3595021,http://baoji.meituan.com/meishi/c17b4301/,http://www.meituan.com/meishi/157738671/,3.5,1条评论,人均￥10,金台区上马营陈仓园一路21号
宝鸡,北坡八大碗柴火鸡,90074709,107.143017,34.383743,107.1382064,34.3850019,http://baoji.meituan.com/meishi/c17b4301/,http://www.meituan.com/meishi/90074709/,4.1,218条评论,人均￥40,金台区北坡西府老街东门向南一百米石门东中户
宝鸡,杨翔豆皮涮牛肚（银泰店）,161821065,107.194146,34.359757,107.189413,34.3611192,http://baoji.meituan.com/meishi/c17b4301/,http://www.meituan.com/meishi/161821065/,3.2,1487条评论,人均￥32,金台区金台大道银泰城四楼
宝鸡,玉蓉火锅,3284132,107.150657,34.374476,107.1458561,34.3757516,http://baoji.meituan.com/meishi/c17b4301/,http://www.meituan.com/meishi/3284132/,4,320条评论,人均￥40,金台区文化路北路196号
宝鸡,十里桃林,160170852,107.116815,34.374524,107.1119905,34.3757607,http://baoji.meituan.com/meishi/c17b4301/,http://www.meituan.com/meishi/160170852/,3.9,14条评论,人均￥40,金台区玉涧堡西路众鑫超市向北50米
宝鸡,起运片片鱼,4153641,107.154791,34.376906,107.1499954,34.3781872,http://baoji.meituan.com/meishi/c17b4301/,http://www.meituan.com/meishi/4153641/,3.1,44条评论,人均 -,金台区群众路14号（华通商厦东北侧）
宝鸡,巴蜀乡约老火锅,89314348,107.173682,34.362511,107.1689163,34.3638339,http://baoji.meituan.com/meishi/c17b4301/,http://www.meituan.com/meishi/89314348/,4.7,664条评论,人均￥39,金台区跃进北路跃进铁路小区商铺
宝鸡,食尚街·美蛙鱼头,169460246,107.234827,34.365602,107.2301333,34.3670146,http://baoji.meituan.com/meishi/c17b4301/,http://www.meituan.com/meishi/169460246/,5,246条评论,人均￥44,金台区陈仓大道盛世广场食尚街二期内（行政中心北侧）
宝鸡,川胖子小郡肝（斗鸡店）,76500416,107.200382,34.367503,107.1956574,34.3688719,http://baoji.meituan.com/meishi/c17b4301/,http://www.meituan.com/meishi/76500416/,4,40条评论,人均￥35,金台区斗中路进新广场东门
宝鸡,小郡肝串串香,163187792,107.255556,34.359005,107.2508594,34.360428,http://baoji.meituan.com/meishi/c17b4301/,http://www.meituan.com/meishi/163187792/,4.1,741条评论,人均￥35,金台区行政东路三迪世纪新城151号（光明小区斜对面）
宝鸡,老地方砂锅串串香,169340520,107.155864,34.375681,107.15107,34.3769647,http://baoji.meituan.com/meishi/c17b4301/,http://www.meituan.com/meishi/169340520/,4.2,13条评论,人均￥35,金台区中山路宝丰大厦63号1楼
宝鸡,川胖子小郡肝（代家湾店）,169245621,107.224831,34.365508,107.2201325,34.3669118,http://baoji.meituan.com/meishi/c17b4301/,http://www.meituan.com/meishi/169245621/,暂无评,3条评论,人均￥55,金台区宏文路盛世花园底商（代家湾小学东行100米）
宝鸡,盛焰自助小火锅,177730718,107.199746,34.368033,107.1950204,34.3694005,http://baoji.meituan.com/meishi/c17b4301/,http://www.meituan.com/meishi/177730718/,3,15条评论,人均 -,金台区宏文路17号
宝鸡,五味缘钢管厂小郡肝串串香（新福园店）,175461876,107.116876,34.374213,107.1120515,34.3754499,http://baoji.meituan.com/meishi/c17b4301/,http://www.meituan.com/meishi/175461876/,5,35条评论,人均￥40,金台区新福路7号众鑫超市北侧
宝鸡,巴渝南山火锅,159632829,107.171079,34.360592,107.1663092,34.361911,http://baoji.meituan.com/meishi/c17b4301/,http://www.meituan.com/meishi/159632829/,3.5,8条评论,人均￥59,金台区金台大道28号（五洲酒店东侧6楼）
宝鸡,开心猫（银泰城店）,179070077,107.195288,34.360255,107.1905566,34.3616189,http://baoji.meituan.com/meishi/c17b4301/,http://www.meituan.com/meishi/179070077/,4.5,30条评论,人均￥10,金台区陈仓镇东岭社区金台大道66号宝鸡银泰城B1-DZ-03-3
宝鸡,徐府一品大虾,175280566,107.385878,34.519582,107.3808926,34.520728,http://baoji.meituan.com/meishi/c17b4303/,http://www.meituan.com/meishi/175280566/,3.7,86条评论,人均￥40,凤翔县秦景北路
宝鸡,鸭掌门火锅,5440030,107.396239,34.511345,107.391242,34.5124899,http://baoji.meituan.com/meishi/c17b4303/,http://www.meituan.com/meishi/5440030/,3.7,647条评论,人均￥48,秦凤路雍兴路西凤宾馆斜对面
宝鸡,香椒区麻辣烫（缸缸米线）,160002195,107.404091,34.522444,107.3990874,34.5235784,http://baoji.meituan.com/meishi/c17b4303/,http://www.meituan.com/meishi/160002195/,4.1,16条评论,人均 -,凤鸣广场二马路鑫馨家园小区6号门面房
宝鸡,嘉州上上签牛肉串串（凤翔店）,180554578,107.384532,34.51571,107.3795489,34.51686,http://baoji.meituan.com/meishi/c17b4303/,http://www.meituan.com/meishi/180554578/,3,3条评论,人均￥35,凤翔县新区大道与秦景南路交口南行130米路西
宝鸡,蜀味香火锅串串,190448062,107.410228,34.519894,107.4052224,34.5210302,http://baoji.meituan.com/meishi/c17b4303/,http://www.meituan.com/meishi/190448062/,3.8,6条评论,人均￥40,凤翔县小南街东关街14号
宝鸡,傲椒啵啵鱼（东湖路店）,177931600,107.40576,34.518643,107.4007559,34.51978,http://baoji.meituan.com/meishi/c17b4303/,http://www.meituan.com/meishi/177931600/,3.7,8条评论,人均￥15,凤翔县东湖路华翔小吃城斜对面
宝鸡,老饕饕客火锅凤翔店,179634805,107.386922,34.521301,107.381935,34.5224449,http://baoji.meituan.com/meishi/c17b4303/,http://www.meituan.com/meishi/179634805/,3,1条评论,人均￥55,凤翔县西城国际百合商业街二楼
宝鸡,雍城湖风情苑餐饮部,117231378,107.399384,34.481926,107.3943868,34.48309,http://baoji.meituan.com/meishi/c17b4303/,http://www.meituan.com/meishi/117231378/,暂无评,1条评论,人均￥40,凤翔县野狐沟（八一道班向东600米）
宝鸡,二当家砂锅串串香（岐山店）,71300022,107.631807,34.445334,107.6271945,34.4468686,http://baoji.meituan.com/meishi/c17b4304/,http://www.meituan.com/meishi/71300022/,5,98条评论,人均￥34,凤东路凤东路和北环路交汇处向东50米路南
宝鸡,重庆老灶火锅（渝鼎情）,41618435,107.59338,34.32546,107.5887969,34.3270766,http://baoji.meituan.com/meishi/c17b4304/,http://www.meituan.com/meishi/41618435/,4.5,516条评论,人均￥47,蔡家坡蔡家坡工农路令胡农贸市场对面（仟家粗粮王旁边）
宝鸡,牛人码头,164436970,107.609208,34.318873,107.6046258,34.3204933,http://baoji.meituan.com/meishi/c17b4304/,http://www.meituan.com/meishi/164436970/,4,45条评论,人均￥18,蔡家坡凤凰西路大森百货二楼
宝鸡,理想大虾养生火锅（岐山店）,111308778,107.60878,34.32025,107.6041978,34.3218698,http://baoji.meituan.com/meishi/c17b4304/,http://www.meituan.com/meishi/111308778/,3.4,849条评论,人均￥34,蔡家坡西二街凤仪国际西门
宝鸡,山城老灶,42936772,107.6112,34.44677,107.6066068,34.44832,http://baoji.meituan.com/meishi/c17b4304/,http://www.meituan.com/meishi/42936772/,4.2,394条评论,人均￥33,岐山县凤鸣西路16号周原大酒店楼下
宝鸡,川江坝子火锅（岐山店）,159526604,107.637996,34.444049,107.6333744,34.4455767,http://baoji.meituan.com/meishi/c17b4304/,http://www.meituan.com/meishi/159526604/,4.1,39条评论,人均￥21,岐山县凤仪路学府新城
宝鸡,重庆上城门火锅,69793785,107.632678,34.445195,107.6280643,34.4467287,http://baoji.meituan.com/meishi/c17b4304/,http://www.meituan.com/meishi/69793785/,4,359条评论,人均￥34,凤东路凤东路和北环路交汇处向东100米路南
宝鸡,尚王府豆皮涮牛肚（蔡家坡店）,4875162,107.604078,34.313893,107.5994974,34.3155166,http://baoji.meituan.com/meishi/c17b4304/,http://www.meituan.com/meishi/4875162/,4.1,285条评论,人均￥43,蔡家坡蔡家坡西三路南段（温馨园小区向南100米）
宝鸡,醉三苏火锅,164896143,107.609046,34.319235,107.6044638,34.3208552,http://baoji.meituan.com/meishi/c17b4304/,http://www.meituan.com/meishi/164896143/,3.7,18条评论,人均￥40,蔡家坡凤凰西路北行
宝鸡,鑫翔炝锅城,189481312,107.607238,34.319182,107.6026564,34.3208027,http://baoji.meituan.com/meishi/c17b4304/,http://www.meituan.com/meishi/189481312/,3.5,6条评论,人均￥37,蔡家坡凤凰西路红歌汇院外二楼
宝鸡,馋嘴鱼纸包鱼,164185324,107.61446,34.31327,107.6098756,34.3148907,http://baoji.meituan.com/meishi/c17b4304/,http://www.meituan.com/meishi/164185324/,3.3,19条评论,人均￥35,岐山县蔡家坡西一路南段世纪家园
宝鸡,重庆章记纸包鱼,159054579,107.609114,34.321333,107.6045316,34.3229522,http://baoji.meituan.com/meishi/c17b4304/,http://www.meituan.com/meishi/159054579/,3.9,19条评论,人均￥35,蔡家坡蔡家坡西二路北段陕九幼儿园斜对面
宝鸡,七婆串串香火锅（岐山店）,75372568,107.63216,34.44537,107.627547,34.4469042,http://baoji.meituan.com/meishi/c17b4304/,http://www.meituan.com/meishi/75372568/,3.9,69条评论,人均￥35,岐山县北环路名贵娱乐会所隔壁
宝鸡,漁小二秘制纸包鱼,156363236,107.609388,34.31893,107.6048057,34.3205502,http://baoji.meituan.com/meishi/c17b4304/,http://www.meituan.com/meishi/156363236/,3.2,82条评论,人均￥29,蔡家坡蔡家坡大森超市购物广场东侧C1-06
宝鸡,森渝记牛杂火锅（蔡家坡店）,91602150,107.614544,34.317604,107.6099592,34.3192227,http://baoji.meituan.com/meishi/c17b4304/,http://www.meituan.com/meishi/91602150/,4.1,25条评论,人均￥31,蔡家坡蔡家坡西一路与凤凰路交汇处向西50米路南（蔡家坡汽车站向西100米）
宝鸡,菜多多自助火锅（蔡家坡店）,40629714,107.604201,34.314397,107.5996204,34.3160203,http://baoji.meituan.com/meishi/c17b4304/,http://www.meituan.com/meishi/40629714/,3,1274条评论,人均￥33,蔡家坡温馨园小区门面房
宝鸡,徐府一品大虾,164795507,107.607215,34.319101,107.6026334,34.3207217,http://baoji.meituan.com/meishi/c17b4304/,http://www.meituan.com/meishi/164795507/,暂无评,574条评论,人均￥29,蔡家坡凤凰西路陕九二区斜对面
宝鸡,飛飛纸包鱼,153216754,107.630136,34.445187,107.6255258,34.4467236,http://baoji.meituan.com/meishi/c17b4304/,http://www.meituan.com/meishi/153216754/,暂无评,0条评论,人均 -,岐山县岐伯路北段与凤仪路东段交汇处向南80米（凤鸣老区对面）
宝鸡,傻儿串串,93418684,107.90014,34.37341,107.8955985,34.374998,http://baoji.meituan.com/meishi/c17b4305/,http://www.meituan.com/meishi/93418684/,5,77条评论,人均￥30,南二路西二路天泰乐园二风区底商（南宫宾馆向西50米）
宝鸡,绝味自助小火锅,89699403,107.895593,34.373214,107.8910481,34.3748005,http://baoji.meituan.com/meishi/c17b4305/,http://www.meituan.com/meishi/89699403/,4.5,269条评论,人均 -,南二路祥云快捷酒店（南二路南）
宝鸡,王婆大虾（扶风店）,76317197,107.891538,34.378234,107.8869889,34.3798156,http://baoji.meituan.com/meishi/c17b4305/,http://www.meituan.com/meishi/76317197/,4.4,385条评论,人均￥33,西大街城关镇西二路北段（县医院西侧十字路口往北五十米）
宝鸡,傻得帽冒菜,166800389,107.901148,34.378942,107.8966066,34.3805272,http://baoji.meituan.com/meishi/c17b4305/,http://www.meituan.com/meishi/166800389/,5,47条评论,人均￥12,扶风东大街公安局斜对面长安银行隔壁
宝鸡,牛人码头潮汕生鲜·唐顺肥牛火锅,41234595,107.896245,34.373071,107.8917007,34.3746578,http://baoji.meituan.com/meishi/c17b4305/,http://www.meituan.com/meishi/41234595/,4,2060条评论,人均￥40,南二路南二路与南大街交叉口西南角（长安银行旁）
宝鸡,超时代鱼火锅（扶风店）,41970427,107.891472,34.377789,107.8869228,34.3793708,http://baoji.meituan.com/meishi/c17b4305/,http://www.meituan.com/meishi/41970427/,3.6,1112条评论,人均￥45,西大街扶风新区人民医院西十字北50米（西大街与西二路交叉口）
宝鸡,东北木火铁锅炖鱼村,42719130,107.891754,34.378912,107.887205,34.3804934,http://baoji.meituan.com/meishi/c17b4305/,http://www.meituan.com/meishi/42719130/,4.4,354条评论,人均￥26,西大街西二路北段盛天怡都酒店南行30米
宝鸡,牛儿源鲜切牛肉火锅,187420465,107.900622,34.379632,107.8960803,34.3812168,http://baoji.meituan.com/meishi/c17b4305/,http://www.meituan.com/meishi/187420465/,4,8条评论,人均￥41,扶风北一路公安局向北50米（祥云华府东门沿街）
宝鸡,望都缘重庆纸包鱼,183864929,107.892013,34.37114,107.8874649,34.3727257,http://baoji.meituan.com/meishi/c17b4305/,http://www.meituan.com/meishi/183864929/,4.4,11条评论,人均 -,南二路西二路与南三路十字路口东北角
宝鸡,李想大虾,117552952,107.904312,34.378412,107.8997723,34.379998,http://baoji.meituan.com/meishi/c17b4305/,http://www.meituan.com/meishi/117552952/,3.8,327条评论,人均￥33,扶风关中风情园西门向南20米
宝鸡,炉火纯青特色火锅,159638365,107.875955,34.35904,107.8713857,34.3606177,http://baoji.meituan.com/meishi/c17b4305/,http://www.meituan.com/meishi/159638365/,3,5条评论,人均￥29,扶风西大街3号
宝鸡,撸啊撸主题火锅串串,160557201,107.90341,34.379003,107.8988698,34.3805886,http://baoji.meituan.com/meishi/c17b4305/,http://www.meituan.com/meishi/160557201/,4.1,6条评论,人均￥25,扶风国风三千坊电影院对面往东500米路南
宝鸡,川老冒冒菜,41928883,107.904997,34.378616,107.9004575,34.3802019,http://baoji.meituan.com/meishi/c17b4305/,http://www.meituan.com/meishi/41928883/,3.7,637条评论,人均￥16,扶风东大街新区国风三千坊（关中风情园西门门口）
宝鸡,狼人部落（扶风店）,178929582,107.899631,34.379323,107.8950887,34.3809077,http://baoji.meituan.com/meishi/c17b4305/,http://www.meituan.com/meishi/178929582/,4.1,9条评论,人均￥40,扶风南大街祥云华府南门向东20米
宝鸡,柒进柒出老灶火锅冒菜,163232224,107.903674,34.379334,107.8991339,34.3809194,http://baoji.meituan.com/meishi/c17b4305/,http://www.meituan.com/meishi/163232224/,3.9,44条评论,人均￥30,扶风东大街西府古镇南门口东侧
宝鸡,饿狼串烤,162700827,107.904653,34.379298,107.9001133,34.3808835,http://baoji.meituan.com/meishi/c17b4305/,http://www.meituan.com/meishi/162700827/,暂无评,0条评论,人均 -,扶风南大街21号
宝鸡,李记酸辣谷,164307221,107.903294,34.381319,107.8987536,34.3829033,http://baoji.meituan.com/meishi/c17b4305/,http://www.meituan.com/meishi/164307221/,暂无评,0条评论,人均 -,扶风北二路西府古镇北门西侧
宝鸡,湘鹅庄养生火锅,5181485,107.735307,34.275172,107.7305225,34.2766323,http://baoji.meituan.com/meishi/c17b4306/,http://www.meituan.com/meishi/5181485/,4.7,1066条评论,人均￥39,美阳街美阳街西段宝深瀚澜大酒店1楼
宝鸡,菲仕兄弟梭边鱼火锅,40537389,107.756116,34.265826,107.751327,34.2672827,http://baoji.meituan.com/meishi/c17b4306/,http://www.meituan.com/meishi/40537389/,5,68条评论,人均￥45,眉县安阳街中段中国银行东侧
宝鸡,独一佳鱼厂,88365469,107.751606,34.272747,107.7468159,34.2742011,http://baoji.meituan.com/meishi/c17b4306/,http://www.meituan.com/meishi/88365469/,4.3,1307条评论,人均￥33,眉县二道巷北口金谷世界城四楼
宝鸡,印象锦里（眉县店）,40619922,107.759008,34.268499,107.7542196,34.2699548,http://baoji.meituan.com/meishi/c17b4306/,http://www.meituan.com/meishi/40619922/,4.3,939条评论,人均￥49,渭阳路迎宾路美阳街十字东北角天龙国际广场1楼南侧（雅合新秀底商）
宝鸡,上渝小郡肝串串火锅,158391719,107.904323,34.132145,107.8998026,34.1338292,http://baoji.meituan.com/meishi/c17b4306/,http://www.meituan.com/meishi/158391719/,5,39条评论,人均￥37,眉县太白山水岸商业街中段水岸温泉酒店楼下
宝鸡,徐府一品大虾,164839215,107.753761,34.26981,107.7489713,34.2712651,http://baoji.meituan.com/meishi/c17b4306/,http://www.meituan.com/meishi/164839215/,4.3,640条评论,人均￥35,渭阳路美阳街中段家美佳二楼
